{"_id":{"$oid":"5bde387e0921aa05cc552e2f"},"DATE":"2017-03-28T04:00:00.000Z","DRNUMB":18218804,"TIMESTART":700,"TIMEEND":700,"ADDRESS":"500 BURNET AV","CODE_DEFINED":"LARCENY","Attempt":null,"Arrest":null,"LarcenyCode":"All Other","FID":1,"location":{"type":"Point","coordinates":[-76.139049321,43.052123288],"spatialReference":{"wkid":4326}}}
{"_id":{"$oid":"5bde387e0921aa05cc552e30"},"DATE":"2017-04-09T04:00:00.000Z","DRNUMB":18235597,"TIMESTART":1835,"TIMEEND":1835,"ADDRESS":"400 ERIE BLVD E","CODE_DEFINED":"LARCENY","Attempt":null,"Arrest":null,"LarcenyCode":"All Other","FID":2,"location":{"type":"Point","coordinates":[-76.147011,43.05083154],"spatialReference":{"wkid":4326}}}
{"_id":{"$oid":"5bde387e0921aa05cc552e31"},"DATE":"2017-07-01T04:00:00.000Z","DRNUMB":18134250,"TIMESTART":0,"TIMEEND":0,"ADDRESS":"600 MADISON ST","CODE_DEFINED":"LARCENY","Attempt":null,"Arrest":null,"LarcenyCode":"All Other","FID":3,"location":{"type":"Point","coordinates":[-76.142134651,43.045330002],"spatialReference":{"wkid":4326}}}
{"_id":{"$oid":"5bde387e0921aa05cc552e32"},"DATE":"2017-12-27T05:00:00.000Z","DRNUMB":18132903,"TIMESTART":1,"TIMEEND":1,"ADDRESS":"200 CLOVER RIDGE DR","CODE_DEFINED":"LARCENY","Attempt":null,"Arrest":"Yes","LarcenyCode":"All Other","FID":4,"location":{"type":"Point","coordinates":[-76.093121377,43.066833706],"spatialReference":{"wkid":4326}}}
{"_id":{"$oid":"5bde387e0921aa05cc552e33"},"DATE":"2017-12-29T05:00:00.000Z","DRNUMB":18112331,"TIMESTART":3,"TIMEEND":3,"ADDRESS":"700 EMERSON AV","CODE_DEFINED":"LARCENY","Attempt":null,"Arrest":null,"LarcenyCode":"All Other","FID":5,"location":{"type":"Point","coordinates":[-76.188654441,43.054850703],"spatialReference":{"wkid":4326}}}
{"_id":{"$oid":"5bde387e0921aa05cc552e34"},"DATE":"2018-01-01T05:00:00.000Z","DRNUMB":18101032,"TIMESTART":29,"TIMEEND":29,"ADDRESS":"200 RICH ST","CODE_DEFINED":"LARCENY","Attempt":null,"Arrest":null,"LarcenyCode":"All Other","FID":6,"location":{"type":"Point","coordinates":[-76.161418143,43.035296208],"spatialReference":{"wkid":4326}}}
{"_id":{"$oid":"5bde387e0921aa05cc552e35"},"DATE":"2018-01-01T05:00:00.000Z","DRNUMB":18101071,"TIMESTART":105,"TIMEEND":105,"ADDRESS":"100 HEADSON DR","CODE_DEFINED":"LARCENY","Attempt":null,"Arrest":null,"LarcenyCode":"All Other","FID":7,"location":{"type":"Point","coordinates":[-76.087754452,43.055146033],"spatialReference":{"wkid":4326}}}
{"_id":{"$oid":"5bde387e0921aa05cc552e36"},"DATE":"2018-01-01T05:00:00.000Z","DRNUMB":18101173,"TIMESTART":248,"TIMEEND":248,"ADDRESS":"700 IRVING AV","CODE_DEFINED":"ROBBERY","Attempt":"A","Arrest":null,"LarcenyCode":"All Other","FID":8,"location":{"type":"Point","coordinates":[-76.13790853,43.042491199],"spatialReference":{"wkid":4326}}}
{"_id":{"$oid":"5bde387e0921aa05cc552e37"},"DATE":"2018-01-01T05:00:00.000Z","DRNUMB":18102136,"TIMESTART":2230,"TIMEEND":2230,"ADDRESS":"300 BURT ST","CODE_DEFINED":"ROBBERY","Attempt":null,"Arrest":null,"LarcenyCode":"All Other","FID":9,"location":{"type":"Point","coordinates":[-76.147299296,43.038194503],"spatialReference":{"wkid":4326}}}
{"_id":{"$oid":"5bde387e0921aa05cc552e38"},"DATE":"2018-01-01T05:00:00.000Z","DRNUMB":18900048,"TIMESTART":1635,"TIMEEND":1635,"ADDRESS":"100 MAPLE TER","CODE_DEFINED":"LARCENY","Attempt":null,"Arrest":null,"LarcenyCode":"All Other","FID":10,"location":{"type":"Point","coordinates":[-76.125280096,43.046120558],"spatialReference":{"wkid":4326}}}
{"_id":{"$oid":"5bde387e0921aa05cc552e39"},"DATE":"2018-01-02T05:00:00.000Z","DRNUMB":18102522,"TIMESTART":845,"TIMEEND":845,"ADDRESS":"500 WALNUT AV","CODE_DEFINED":"LARCENY","Attempt":null,"Arrest":null,"LarcenyCode":"All Other","FID":11,"location":{"type":"Point","coordinates":[-76.13213107,43.04652409],"spatialReference":{"wkid":4326}}}
{"_id":{"$oid":"5bde387e0921aa05cc552e3a"},"DATE":"2018-01-02T05:00:00.000Z","DRNUMB":18102911,"TIMESTART":1700,"TIMEEND":1400,"ADDRESS":"4300 S  SALINA ST","CODE_DEFINED":"LARCENY","Attempt":null,"Arrest":null,"LarcenyCode":"All Other","FID":12,"location":{"type":"Point","coordinates":[-76.143087753,43.006854667],"spatialReference":{"wkid":4326}}}
{"_id":{"$oid":"5bde387e0921aa05cc552e3b"},"DATE":"2018-01-02T05:00:00.000Z","DRNUMB":18131051,"TIMESTART":1700,"TIMEEND":1700,"ADDRESS":"1000 W  GENESEE ST","CODE_DEFINED":"LARCENY","Attempt":null,"Arrest":null,"LarcenyCode":"All Other","FID":13,"location":{"type":"Point","coordinates":[-76.170919133,43.053709472],"spatialReference":{"wkid":4326}}}
{"_id":{"$oid":"5bde387e0921aa05cc552e3c"},"DATE":"2018-01-02T05:00:00.000Z","DRNUMB":18900010,"TIMESTART":1300,"TIMEEND":1300,"ADDRESS":"200 LINCOLN AV","CODE_DEFINED":"LARCENY","Attempt":null,"Arrest":null,"LarcenyCode":"All Other","FID":14,"location":{"type":"Point","coordinates":[-76.157160898,43.036278873],"spatialReference":{"wkid":4326}}}
{"_id":{"$oid":"5bde387e0921aa05cc552e3d"},"DATE":"2018-01-03T05:00:00.000Z","DRNUMB":18104139,"TIMESTART":0,"TIMEEND":1156,"ADDRESS":"500 TOMPKINS ST","CODE_DEFINED":"LARCENY","Attempt":null,"Arrest":null,"LarcenyCode":"All Other","FID":15,"location":{"type":"Point","coordinates":[-76.185843862,43.046460502],"spatialReference":{"wkid":4326}}}
{"_id":{"$oid":"5bde387e0921aa05cc552e3e"},"DATE":"2018-01-03T05:00:00.000Z","DRNUMB":18104215,"TIMESTART":1250,"TIMEEND":1254,"ADDRESS":"1100 WILLIS AV","CODE_DEFINED":"LARCENY","Attempt":null,"Arrest":"Yes","LarcenyCode":"All Other","FID":16,"location":{"type":"Point","coordinates":[-76.195784929,43.057571838],"spatialReference":{"wkid":4326}}}
{"_id":{"$oid":"5bde387e0921aa05cc552e3f"},"DATE":"2018-01-03T05:00:00.000Z","DRNUMB":18104249,"TIMESTART":1311,"TIMEEND":1311,"ADDRESS":"200 WINDING RIDGE RD","CODE_DEFINED":"LARCENY","Attempt":null,"Arrest":null,"LarcenyCode":"All Other","FID":17,"location":{"type":"Point","coordinates":[-76.121927332,43.015800419],"spatialReference":{"wkid":4326}}}
{"_id":{"$oid":"5bde387e0921aa05cc552e40"},"DATE":"2018-01-03T05:00:00.000Z","DRNUMB":18104716,"TIMESTART":1420,"TIMEEND":1420,"ADDRESS":"1 DESTINY USA DR","CODE_DEFINED":"LARCENY","Attempt":null,"Arrest":null,"LarcenyCode":"All Other","FID":18,"location":{"type":"Point","coordinates":[-76.17424753,43.069913309],"spatialReference":{"wkid":4326}}}
{"_id":{"$oid":"5bde387e0921aa05cc552e41"},"DATE":"2018-01-03T05:00:00.000Z","DRNUMB":18163503,"TIMESTART":800,"TIMEEND":1200,"ADDRESS":"100 GERTRUDE ST","CODE_DEFINED":"LARCENY","Attempt":null,"Arrest":null,"LarcenyCode":"All Other","FID":19,"location":{"type":"Point","coordinates":[-76.128520237,43.13830187],"spatialReference":{"wkid":4326}}}
{"_id":{"$oid":"5bde387e0921aa05cc552e42"},"DATE":"2018-01-04T05:00:00.000Z","DRNUMB":18105923,"TIMESTART":1441,"TIMEEND":1441,"ADDRESS":"2700 E  GENESEE ST","CODE_DEFINED":"LARCENY","Attempt":null,"Arrest":null,"LarcenyCode":"All Other","FID":20,"location":{"type":"Point","coordinates":[-76.108349157,43.043459137],"spatialReference":{"wkid":4326}}}
{"_id":{"$oid":"5bde387e0921aa05cc552e43"},"DATE":"2018-01-04T05:00:00.000Z","DRNUMB":18139458,"TIMESTART":0,"TIMEEND":0,"ADDRESS":"400 GRIFFITHS ST","CODE_DEFINED":"LARCENY","Attempt":null,"Arrest":null,"LarcenyCode":"All Other","FID":21,"location":{"type":"Point","coordinates":[-76.147089235,43.069759323],"spatialReference":{"wkid":4326}}}
{"_id":{"$oid":"5bde387e0921aa05cc552e44"},"DATE":"2018-01-05T05:00:00.000Z","DRNUMB":18106722,"TIMESTART":334,"TIMEEND":334,"ADDRESS":"500 S  CROUSE AV","CODE_DEFINED":"LARCENY","Attempt":null,"Arrest":null,"LarcenyCode":"All Other","FID":22,"location":{"type":"Point","coordinates":[-76.136634598,43.045324431],"spatialReference":{"wkid":4326}}}
{"_id":{"$oid":"5bde387e0921aa05cc552e45"},"DATE":"2018-01-05T05:00:00.000Z","DRNUMB":18106921,"TIMESTART":621,"TIMEEND":900,"ADDRESS":"200 N  STATE ST","CODE_DEFINED":"LARCENY","Attempt":null,"Arrest":null,"LarcenyCode":"All Other","FID":23,"location":{"type":"Point","coordinates":[-76.148608194,43.052753964],"spatialReference":{"wkid":4326}}}
{"_id":{"$oid":"5bde387e0921aa05cc552e46"},"DATE":"2018-01-05T05:00:00.000Z","DRNUMB":18107084,"TIMESTART":1143,"TIMEEND":1143,"ADDRESS":"1100 S  SALINA ST","CODE_DEFINED":"LARCENY","Attempt":null,"Arrest":null,"LarcenyCode":"All Other","FID":24,"location":{"type":"Point","coordinates":[-76.149652159,43.036342049],"spatialReference":{"wkid":4326}}}
{"_id":{"$oid":"5bde387e0921aa05cc552e47"},"DATE":"2018-01-05T05:00:00.000Z","DRNUMB":18107686,"TIMESTART":1945,"TIMEEND":1945,"ADDRESS":"400 ERIE BLVD E","CODE_DEFINED":"ROBBERY","Attempt":"A","Arrest":null,"LarcenyCode":"All Other","FID":25,"location":{"type":"Point","coordinates":[-76.147011,43.05083154],"spatialReference":{"wkid":4326}}}
{"_id":{"$oid":"5bde387e0921aa05cc552e48"},"DATE":"2018-01-05T05:00:00.000Z","DRNUMB":18107717,"TIMESTART":2000,"TIMEEND":2005,"ADDRESS":"1 DESTINY USA DR","CODE_DEFINED":"LARCENY","Attempt":null,"Arrest":null,"LarcenyCode":"All Other","FID":26,"location":{"type":"Point","coordinates":[-76.17424753,43.069913309],"spatialReference":{"wkid":4326}}}
{"_id":{"$oid":"5bde387e0921aa05cc552e49"},"DATE":"2018-01-05T05:00:00.000Z","DRNUMB":18117436,"TIMESTART":1,"TIMEEND":2359,"ADDRESS":"200 GRACE ST","CODE_DEFINED":"LARCENY","Attempt":null,"Arrest":null,"LarcenyCode":"All Other","FID":27,"location":{"type":"Point","coordinates":[-76.166479905,43.03832118],"spatialReference":{"wkid":4326}}}
{"_id":{"$oid":"5bde387e0921aa05cc552e4a"},"DATE":"2018-01-06T05:00:00.000Z","DRNUMB":18108349,"TIMESTART":1040,"TIMEEND":1040,"ADDRESS":"600 FIRST NORTH ST","CODE_DEFINED":"ROBBERY","Attempt":null,"Arrest":null,"LarcenyCode":"All Other","FID":28,"location":{"type":"Point","coordinates":[-76.147562777,43.068864487],"spatialReference":{"wkid":4326}}}
{"_id":{"$oid":"5bde387e0921aa05cc552e4b"},"DATE":"2018-01-06T05:00:00.000Z","DRNUMB":18108349,"TIMESTART":1040,"TIMEEND":1040,"ADDRESS":"600 FIRST NORTH ST","CODE_DEFINED":"ROBBERY","Attempt":"A","Arrest":null,"LarcenyCode":"All Other","FID":29,"location":{"type":"Point","coordinates":[-76.147562777,43.068864487],"spatialReference":{"wkid":4326}}}
{"_id":{"$oid":"5bde387e0921aa05cc552e4c"},"DATE":"2018-01-06T05:00:00.000Z","DRNUMB":18108811,"TIMESTART":1640,"TIMEEND":1640,"ADDRESS":"100 JAMESVILLE AV","CODE_DEFINED":"LARCENY","Attempt":null,"Arrest":null,"LarcenyCode":"All Other","FID":30,"location":{"type":"Point","coordinates":[-76.135625986,43.026978349],"spatialReference":{"wkid":4326}}}
{"_id":{"$oid":"5bde387e0921aa05cc552e4d"},"DATE":"2018-01-06T05:00:00.000Z","DRNUMB":18108862,"TIMESTART":0,"TIMEEND":1000,"ADDRESS":"100 WIMAN AV","CODE_DEFINED":"LARCENY","Attempt":null,"Arrest":null,"LarcenyCode":"All Other","FID":31,"location":{"type":"Point","coordinates":[-76.153316994,43.016799829],"spatialReference":{"wkid":4326}}}
{"_id":{"$oid":"5bde387e0921aa05cc552e4e"},"DATE":"2018-01-07T05:00:00.000Z","DRNUMB":18109331,"TIMESTART":100,"TIMEEND":100,"ADDRESS":"100 CAMBRIDGE ST","CODE_DEFINED":"LARCENY","Attempt":null,"Arrest":null,"LarcenyCode":"All Other","FID":32,"location":{"type":"Point","coordinates":[-76.118200374,43.0454709],"spatialReference":{"wkid":4326}}}
{"_id":{"$oid":"5bde387e0921aa05cc552e4f"},"DATE":"2018-01-08T05:00:00.000Z","DRNUMB":18110823,"TIMESTART":818,"TIMEEND":818,"ADDRESS":"200 STRONG AV","CODE_DEFINED":"LARCENY","Attempt":null,"Arrest":null,"LarcenyCode":"All Other","FID":33,"location":{"type":"Point","coordinates":[-76.116917228,43.036817861],"spatialReference":{"wkid":4326}}}
{"_id":{"$oid":"5bde387e0921aa05cc552e50"},"DATE":"2018-01-08T05:00:00.000Z","DRNUMB":18111155,"TIMESTART":1210,"TIMEEND":1210,"ADDRESS":"400 N  SALINA ST","CODE_DEFINED":"ROBBERY","Attempt":null,"Arrest":null,"LarcenyCode":"All Other","FID":34,"location":{"type":"Point","coordinates":[-76.15201873,43.056113865],"spatialReference":{"wkid":4326}}}
{"_id":{"$oid":"5bde387e0921aa05cc552e51"},"DATE":"2018-01-08T05:00:00.000Z","DRNUMB":18111914,"TIMESTART":2131,"TIMEEND":2131,"ADDRESS":"700 FIRST NORTH ST","CODE_DEFINED":"LARCENY","Attempt":null,"Arrest":"Yes","LarcenyCode":"All Other","FID":35,"location":{"type":"Point","coordinates":[-76.149439522,43.069623343],"spatialReference":{"wkid":4326}}}
{"_id":{"$oid":"5bde387e0921aa05cc552e52"},"DATE":"2018-01-09T05:00:00.000Z","DRNUMB":18112725,"TIMESTART":1310,"TIMEEND":1310,"ADDRESS":"300 VALLEY DR","CODE_DEFINED":"LARCENY","Attempt":null,"Arrest":null,"LarcenyCode":"All Other","FID":36,"location":{"type":"Point","coordinates":[-76.160002833,43.016017768],"spatialReference":{"wkid":4326}}}
{"_id":{"$oid":"5bde387e0921aa05cc552e53"},"DATE":"2018-01-09T05:00:00.000Z","DRNUMB":18114164,"TIMESTART":1230,"TIMEEND":1200,"ADDRESS":"100 N  GEDDES ST","CODE_DEFINED":"LARCENY","Attempt":null,"Arrest":null,"LarcenyCode":"All Other","FID":37,"location":{"type":"Point","coordinates":[-76.170764477,43.048403047],"spatialReference":{"wkid":4326}}}
{"_id":{"$oid":"5bde387e0921aa05cc552e54"},"DATE":"2018-01-10T05:00:00.000Z","DRNUMB":18113805,"TIMESTART":839,"TIMEEND":839,"ADDRESS":"600 ROBINSON ST","CODE_DEFINED":"LARCENY","Attempt":null,"Arrest":null,"LarcenyCode":"All Other","FID":38,"location":{"type":"Point","coordinates":[-76.118831152,43.058511509],"spatialReference":{"wkid":4326}}}
{"_id":{"$oid":"5bde387e0921aa05cc552e55"},"DATE":"2018-01-10T05:00:00.000Z","DRNUMB":18114368,"TIMESTART":1130,"TIMEEND":1400,"ADDRESS":"2400 GRANT BLVD","CODE_DEFINED":"LARCENY","Attempt":null,"Arrest":null,"LarcenyCode":"All Other","FID":39,"location":{"type":"Point","coordinates":[-76.14869838,43.073827227],"spatialReference":{"wkid":4326}}}
{"_id":{"$oid":"5bde387e0921aa05cc552e56"},"DATE":"2018-01-10T05:00:00.000Z","DRNUMB":18114609,"TIMESTART":1810,"TIMEEND":1810,"ADDRESS":"700 FIRST NORTH ST","CODE_DEFINED":"LARCENY","Attempt":null,"Arrest":"Yes","LarcenyCode":"All Other","FID":40,"location":{"type":"Point","coordinates":[-76.149439522,43.069623343],"spatialReference":{"wkid":4326}}}
{"_id":{"$oid":"5bde387e0921aa05cc552e57"},"DATE":"2018-01-10T05:00:00.000Z","DRNUMB":18900031,"TIMESTART":1300,"TIMEEND":1300,"ADDRESS":"700 E  ADAMS ST","CODE_DEFINED":"LARCENY","Attempt":null,"Arrest":null,"LarcenyCode":"All Other","FID":41,"location":{"type":"Point","coordinates":[-76.141893135,43.042685554],"spatialReference":{"wkid":4326}}}
{"_id":{"$oid":"5bde387e0921aa05cc552e58"},"DATE":"2018-01-11T05:00:00.000Z","DRNUMB":18115259,"TIMESTART":2100,"TIMEEND":914,"ADDRESS":"800 JAMES ST","CODE_DEFINED":"LARCENY","Attempt":null,"Arrest":"Yes","LarcenyCode":"All Other","FID":42,"location":{"type":"Point","coordinates":[-76.140294721,43.056324995],"spatialReference":{"wkid":4326}}}
{"_id":{"$oid":"5bde387e0921aa05cc552e59"},"DATE":"2018-01-11T05:00:00.000Z","DRNUMB":18115385,"TIMESTART":1100,"TIMEEND":1100,"ADDRESS":"300 HILLVIEW AV","CODE_DEFINED":"LARCENY","Attempt":null,"Arrest":null,"LarcenyCode":"All Other","FID":43,"location":{"type":"Point","coordinates":[-76.162832665,43.020516519],"spatialReference":{"wkid":4326}}}
{"_id":{"$oid":"5bde387e0921aa05cc552e5a"},"DATE":"2018-01-11T05:00:00.000Z","DRNUMB":18115552,"TIMESTART":1700,"TIMEEND":1300,"ADDRESS":"300 PEAT ST","CODE_DEFINED":"LARCENY","Attempt":null,"Arrest":"Yes","LarcenyCode":"All Other","FID":44,"location":{"type":"Point","coordinates":[-76.115437304,43.053313415],"spatialReference":{"wkid":4326}}}
{"_id":{"$oid":"5bde387e0921aa05cc552e5b"},"DATE":"2018-01-11T05:00:00.000Z","DRNUMB":18115646,"TIMESTART":1000,"TIMEEND":1419,"ADDRESS":"1400 BURNET AV","CODE_DEFINED":"BURGLARY","Attempt":null,"Arrest":null,"LarcenyCode":"All Other","FID":45,"location":{"type":"Point","coordinates":[-76.119236178,43.055013061],"spatialReference":{"wkid":4326}}}
{"_id":{"$oid":"5bde387e0921aa05cc552e5c"},"DATE":"2018-01-11T05:00:00.000Z","DRNUMB":18115852,"TIMESTART":1300,"TIMEEND":1400,"ADDRESS":"100 SECOND NORTH ST","CODE_DEFINED":"LARCENY","Attempt":null,"Arrest":null,"LarcenyCode":"All Other","FID":46,"location":{"type":"Point","coordinates":[-76.151402296,43.071990328],"spatialReference":{"wkid":4326}}}
{"_id":{"$oid":"5bde387e0921aa05cc552e5d"},"DATE":"2018-01-12T05:00:00.000Z","DRNUMB":18117745,"TIMESTART":1954,"TIMEEND":1954,"ADDRESS":"200 FURMAN ST","CODE_DEFINED":"ROBBERY","Attempt":null,"Arrest":null,"LarcenyCode":"All Other","FID":47,"location":{"type":"Point","coordinates":[-76.150727428,43.031249034],"spatialReference":{"wkid":4326}}}
{"_id":{"$oid":"5bde387e0921aa05cc552e5e"},"DATE":"2018-01-12T05:00:00.000Z","DRNUMB":18900040,"TIMESTART":1400,"TIMEEND":1640,"ADDRESS":"1500 MIDLAND AV","CODE_DEFINED":"LARCENY","Attempt":null,"Arrest":null,"LarcenyCode":"All Other","FID":48,"location":{"type":"Point","coordinates":[-76.150893574,43.024136315],"spatialReference":{"wkid":4326}}}
{"_id":{"$oid":"5bde387e0921aa05cc552e5f"},"DATE":"2018-01-13T05:00:00.000Z","DRNUMB":18119253,"TIMESTART":2305,"TIMEEND":2305,"ADDRESS":"700 W  GENESEE ST","CODE_DEFINED":"ROBBERY","Attempt":null,"Arrest":"Yes","LarcenyCode":"All Other","FID":49,"location":{"type":"Point","coordinates":[-76.163833446,43.053513502],"spatialReference":{"wkid":4326}}}
{"_id":{"$oid":"5bde387e0921aa05cc552e60"},"DATE":"2018-01-13T05:00:00.000Z","DRNUMB":18119303,"TIMESTART":1400,"TIMEEND":2330,"ADDRESS":"300 DEWITT ST","CODE_DEFINED":"BURGLARY","Attempt":null,"Arrest":null,"LarcenyCode":"All Other","FID":50,"location":{"type":"Point","coordinates":[-76.1337405,43.063490496],"spatialReference":{"wkid":4326}}}
{"_id":{"$oid":"5bde387e0921aa05cc552e61"},"DATE":"2018-03-01T05:00:00.000Z","DRNUMB":18182525,"TIMESTART":1258,"TIMEEND":1258,"ADDRESS":"200 MAGNOLIA ST","CODE_DEFINED":"LARCENY","Attempt":null,"Arrest":null,"LarcenyCode":"All Other","FID":51,"location":{"type":"Point","coordinates":[-76.174591141,43.044392769],"spatialReference":{"wkid":4326}}}
{"_id":{"$oid":"5bde387e0921aa05cc552e62"},"DATE":"2018-03-01T05:00:00.000Z","DRNUMB":18182679,"TIMESTART":1300,"TIMEEND":1310,"ADDRESS":"600 WINTON ST","CODE_DEFINED":"ROBBERY","Attempt":null,"Arrest":null,"LarcenyCode":"All Other","FID":52,"location":{"type":"Point","coordinates":[-76.124406447,43.058201594],"spatialReference":{"wkid":4326}}}
{"_id":{"$oid":"5bde387e0921aa05cc552e63"},"DATE":"2018-03-01T05:00:00.000Z","DRNUMB":18183205,"TIMESTART":2211,"TIMEEND":2211,"ADDRESS":"1 DESTINY USA DR","CODE_DEFINED":"LARCENY","Attempt":null,"Arrest":"Yes","LarcenyCode":"All Other","FID":53,"location":{"type":"Point","coordinates":[-76.17424753,43.069913309],"spatialReference":{"wkid":4326}}}
{"_id":{"$oid":"5bde387e0921aa05cc552e64"},"DATE":"2018-03-01T05:00:00.000Z","DRNUMB":18211999,"TIMESTART":1200,"TIMEEND":1200,"ADDRESS":"1 DESTINY USA DR","CODE_DEFINED":"LARCENY","Attempt":null,"Arrest":null,"LarcenyCode":"All Other","FID":54,"location":{"type":"Point","coordinates":[-76.17424753,43.069913309],"spatialReference":{"wkid":4326}}}
{"_id":{"$oid":"5bde387e0921aa05cc552e65"},"DATE":"2018-03-02T05:00:00.000Z","DRNUMB":18183444,"TIMESTART":200,"TIMEEND":400,"ADDRESS":"200 W  JEFFERSON ST","CODE_DEFINED":"LARCENY","Attempt":null,"Arrest":null,"LarcenyCode":"All Other","FID":55,"location":{"type":"Point","coordinates":[-76.154050568,43.047070376],"spatialReference":{"wkid":4326}}}
{"_id":{"$oid":"5bde387e0921aa05cc552e66"},"DATE":"2018-03-02T05:00:00.000Z","DRNUMB":18184103,"TIMESTART":1053,"TIMEEND":1053,"ADDRESS":"0 KINGSLEY PL","CODE_DEFINED":"BURGLARY","Attempt":null,"Arrest":null,"LarcenyCode":"All Other","FID":56,"location":{"type":"Point","coordinates":[-76.190880155,43.057021902],"spatialReference":{"wkid":4326}}}
{"_id":{"$oid":"5bde387e0921aa05cc552e67"},"DATE":"2018-03-02T05:00:00.000Z","DRNUMB":18900172,"TIMESTART":1900,"TIMEEND":1930,"ADDRESS":"400 COURT ST","CODE_DEFINED":"LARCENY","Attempt":null,"Arrest":null,"LarcenyCode":"All Other","FID":57,"location":{"type":"Point","coordinates":[-76.158055878,43.068558134],"spatialReference":{"wkid":4326}}}
{"_id":{"$oid":"5bde387e0921aa05cc552e68"},"DATE":"2018-03-03T05:00:00.000Z","DRNUMB":18185136,"TIMESTART":200,"TIMEEND":200,"ADDRESS":"200 MCCLENNAN AV","CODE_DEFINED":"ROBBERY","Attempt":null,"Arrest":null,"LarcenyCode":"All Other","FID":58,"location":{"type":"Point","coordinates":[-76.149079019,43.028196023],"spatialReference":{"wkid":4326}}}
{"_id":{"$oid":"5bde387e0921aa05cc552e69"},"DATE":"2018-03-04T05:00:00.000Z","DRNUMB":18900176,"TIMESTART":145,"TIMEEND":200,"ADDRESS":"400 S  CLINTON ST","CODE_DEFINED":"LARCENY","Attempt":null,"Arrest":null,"LarcenyCode":"All Other","FID":59,"location":{"type":"Point","coordinates":[-76.153628566,43.04781],"spatialReference":{"wkid":4326}}}
{"_id":{"$oid":"5bde387e0921aa05cc552e6a"},"DATE":"2018-03-05T05:00:00.000Z","DRNUMB":18188520,"TIMESTART":1835,"TIMEEND":1835,"ADDRESS":"2000 S  SALINA ST","CODE_DEFINED":"LARCENY","Attempt":null,"Arrest":null,"LarcenyCode":"All Other","FID":60,"location":{"type":"Point","coordinates":[-76.146035344,43.026957777],"spatialReference":{"wkid":4326}}}
{"_id":{"$oid":"5bde387e0921aa05cc552e6b"},"DATE":"2018-03-05T05:00:00.000Z","DRNUMB":18188791,"TIMESTART":2242,"TIMEEND":2242,"ADDRESS":"1000 BELLEVUE AV","CODE_DEFINED":"BURGLARY","Attempt":null,"Arrest":null,"LarcenyCode":"All Other","FID":61,"location":{"type":"Point","coordinates":[-76.170204115,43.033052482],"spatialReference":{"wkid":4326}}}
{"_id":{"$oid":"5bde387e0921aa05cc552e6c"},"DATE":"2018-03-06T05:00:00.000Z","DRNUMB":18190053,"TIMESTART":1000,"TIMEEND":1900,"ADDRESS":"1000 JAMES ST","CODE_DEFINED":"LARCENY","Attempt":null,"Arrest":"Yes","LarcenyCode":"All Other","FID":62,"location":{"type":"Point","coordinates":[-76.134327817,43.059322081],"spatialReference":{"wkid":4326}}}
{"_id":{"$oid":"5bde387e0921aa05cc552e6d"},"DATE":"2018-03-06T05:00:00.000Z","DRNUMB":18900180,"TIMESTART":1800,"TIMEEND":1930,"ADDRESS":"1200 SOUTH AV","CODE_DEFINED":"LARCENY","Attempt":null,"Arrest":null,"LarcenyCode":"All Other","FID":63,"location":{"type":"Point","coordinates":[-76.158945203,43.025732172],"spatialReference":{"wkid":4326}}}
{"_id":{"$oid":"5bde387e0921aa05cc552e6e"},"DATE":"2018-03-07T05:00:00.000Z","DRNUMB":18190856,"TIMESTART":1146,"TIMEEND":1146,"ADDRESS":"1100 W  BELDEN AV","CODE_DEFINED":"LARCENY","Attempt":null,"Arrest":null,"LarcenyCode":"All Other","FID":64,"location":{"type":"Point","coordinates":[-76.17052575,43.054998202],"spatialReference":{"wkid":4326}}}
{"_id":{"$oid":"5bde387e0921aa05cc552e6f"},"DATE":"2018-03-07T05:00:00.000Z","DRNUMB":18193349,"TIMESTART":0,"TIMEEND":0,"ADDRESS":"400 VANN ST","CODE_DEFINED":"LARCENY","Attempt":null,"Arrest":null,"LarcenyCode":"All Other","FID":65,"location":{"type":"Point","coordinates":[-76.114803092,43.057173145],"spatialReference":{"wkid":4326}}}
{"_id":{"$oid":"5bde387e0921aa05cc552e70"},"DATE":"2018-03-08T05:00:00.000Z","DRNUMB":18192011,"TIMESTART":942,"TIMEEND":942,"ADDRESS":"100 S  SALINA ST","CODE_DEFINED":"LARCENY","Attempt":null,"Arrest":null,"LarcenyCode":"All Other","FID":66,"location":{"type":"Point","coordinates":[-76.152261309,43.050755865],"spatialReference":{"wkid":4326}}}
{"_id":{"$oid":"5bde387e0921aa05cc552e71"},"DATE":"2018-03-09T05:00:00.000Z","DRNUMB":18193208,"TIMESTART":735,"TIMEEND":735,"ADDRESS":"500 BUTTERNUT ST","CODE_DEFINED":"LARCENY","Attempt":null,"Arrest":null,"LarcenyCode":"All Other","FID":67,"location":{"type":"Point","coordinates":[-76.14783229,43.059485735],"spatialReference":{"wkid":4326}}}
{"_id":{"$oid":"5bde387e0921aa05cc552e72"},"DATE":"2018-03-09T05:00:00.000Z","DRNUMB":18193695,"TIMESTART":1400,"TIMEEND":1400,"ADDRESS":"100 E  COLVIN ST","CODE_DEFINED":"LARCENY","Attempt":null,"Arrest":null,"LarcenyCode":"All Other","FID":68,"location":{"type":"Point","coordinates":[-76.145198714,43.025523173],"spatialReference":{"wkid":4326}}}
{"_id":{"$oid":"5bde387e0921aa05cc552e73"},"DATE":"2018-03-09T05:00:00.000Z","DRNUMB":18193995,"TIMESTART":1600,"TIMEEND":1600,"ADDRESS":"100 POLK ST","CODE_DEFINED":"LARCENY","Attempt":null,"Arrest":null,"LarcenyCode":"All Other","FID":69,"location":{"type":"Point","coordinates":[-76.093952024,43.053587551],"spatialReference":{"wkid":4326}}}
{"_id":{"$oid":"5bde387e0921aa05cc552e74"},"DATE":"2018-03-10T05:00:00.000Z","DRNUMB":18196128,"TIMESTART":2100,"TIMEEND":2100,"ADDRESS":"2500 ERIE BLVD E","CODE_DEFINED":"LARCENY","Attempt":null,"Arrest":null,"LarcenyCode":"All Other","FID":70,"location":{"type":"Point","coordinates":[-76.103728162,43.053524656],"spatialReference":{"wkid":4326}}}
{"_id":{"$oid":"5bde387e0921aa05cc552e75"},"DATE":"2018-03-10T05:00:00.000Z","DRNUMB":18200869,"TIMESTART":1451,"TIMEEND":1248,"ADDRESS":"1800 E  FAYETTE ST","CODE_DEFINED":"LARCENY","Attempt":null,"Arrest":null,"LarcenyCode":"All Other","FID":71,"location":{"type":"Point","coordinates":[-76.119880331,43.048216335],"spatialReference":{"wkid":4326}}}
{"_id":{"$oid":"5bde387e0921aa05cc552e76"},"DATE":"2018-03-10T05:00:00.000Z","DRNUMB":18900185,"TIMESTART":2215,"TIMEEND":1230,"ADDRESS":"500 WESTCOTT ST","CODE_DEFINED":"LARCENY","Attempt":null,"Arrest":null,"LarcenyCode":"All Other","FID":72,"location":{"type":"Point","coordinates":[-76.119431195,43.041796093],"spatialReference":{"wkid":4326}}}
{"_id":{"$oid":"5bde387e0921aa05cc552e77"},"DATE":"2018-03-11T05:00:00.000Z","DRNUMB":18196148,"TIMESTART":1000,"TIMEEND":1303,"ADDRESS":"300 W  KENNEDY ST","CODE_DEFINED":"LARCENY","Attempt":null,"Arrest":"Yes","LarcenyCode":"All Other","FID":73,"location":{"type":"Point","coordinates":[-76.153059387,43.029332946],"spatialReference":{"wkid":4326}}}
{"_id":{"$oid":"5bde387e0921aa05cc552e78"},"DATE":"2018-03-11T05:00:00.000Z","DRNUMB":18196330,"TIMESTART":1626,"TIMEEND":1626,"ADDRESS":"200 KIRK AV","CODE_DEFINED":"ROBBERY","Attempt":null,"Arrest":"Yes","LarcenyCode":"All Other","FID":74,"location":{"type":"Point","coordinates":[-76.149508384,43.029083063],"spatialReference":{"wkid":4326}}}
{"_id":{"$oid":"5bde387e0921aa05cc552e79"},"DATE":"2018-03-11T05:00:00.000Z","DRNUMB":18196403,"TIMESTART":500,"TIMEEND":1500,"ADDRESS":"1200 SPRING ST","CODE_DEFINED":"LARCENY","Attempt":null,"Arrest":null,"LarcenyCode":"All Other","FID":75,"location":{"type":"Point","coordinates":[-76.15647478,43.070919194],"spatialReference":{"wkid":4326}}}
{"_id":{"$oid":"5bde387e0921aa05cc552e7a"},"DATE":"2018-03-11T05:00:00.000Z","DRNUMB":18196563,"TIMESTART":2130,"TIMEEND":2130,"ADDRESS":"100 OAK PL","CODE_DEFINED":"ROBBERY","Attempt":null,"Arrest":"Yes","LarcenyCode":"All Other","FID":76,"location":{"type":"Point","coordinates":[-76.132176862,43.05657632],"spatialReference":{"wkid":4326}}}
{"_id":{"$oid":"5bde387e0921aa05cc552e7b"},"DATE":"2018-03-11T05:00:00.000Z","DRNUMB":18197403,"TIMESTART":1800,"TIMEEND":1800,"ADDRESS":"300 MAPLE ST","CODE_DEFINED":"BURGLARY","Attempt":null,"Arrest":null,"LarcenyCode":"All Other","FID":77,"location":{"type":"Point","coordinates":[-76.125629606,43.048187749],"spatialReference":{"wkid":4326}}}
{"_id":{"$oid":"5bde387e0921aa05cc552e7c"},"DATE":"2018-03-12T04:00:00.000Z","DRNUMB":18197055,"TIMESTART":554,"TIMEEND":554,"ADDRESS":"2400 S  STATE ST","CODE_DEFINED":"BURGLARY","Attempt":null,"Arrest":null,"LarcenyCode":"All Other","FID":78,"location":{"type":"Point","coordinates":[-76.14173692,43.022340241],"spatialReference":{"wkid":4326}}}
{"_id":{"$oid":"5bde387e0921aa05cc552e7d"},"DATE":"2018-03-12T04:00:00.000Z","DRNUMB":18197526,"TIMESTART":1606,"TIMEEND":1606,"ADDRESS":"2500 ERIE BLVD E","CODE_DEFINED":"LARCENY","Attempt":null,"Arrest":null,"LarcenyCode":"All Other","FID":79,"location":{"type":"Point","coordinates":[-76.103728162,43.053524656],"spatialReference":{"wkid":4326}}}
{"_id":{"$oid":"5bde387e0921aa05cc552e7e"},"DATE":"2018-03-13T04:00:00.000Z","DRNUMB":18198241,"TIMESTART":559,"TIMEEND":559,"ADDRESS":"200 N  MIDLER AV","CODE_DEFINED":"LARCENY","Attempt":null,"Arrest":null,"LarcenyCode":"All Other","FID":80,"location":{"type":"Point","coordinates":[-76.105435985,43.070940147],"spatialReference":{"wkid":4326}}}
{"_id":{"$oid":"5bde387e0921aa05cc552e7f"},"DATE":"2018-03-13T04:00:00.000Z","DRNUMB":18199148,"TIMESTART":2017,"TIMEEND":2017,"ADDRESS":"1000 PARK ST","CODE_DEFINED":"LARCENY","Attempt":null,"Arrest":null,"LarcenyCode":"All Other","FID":81,"location":{"type":"Point","coordinates":[-76.148292668,43.064646411],"spatialReference":{"wkid":4326}}}
{"_id":{"$oid":"5bde387e0921aa05cc552e80"},"DATE":"2018-03-13T04:00:00.000Z","DRNUMB":18202306,"TIMESTART":0,"TIMEEND":1600,"ADDRESS":"600 S  WILBUR AV","CODE_DEFINED":"LARCENY","Attempt":null,"Arrest":null,"LarcenyCode":"All Other","FID":82,"location":{"type":"Point","coordinates":[-76.175560596,43.043996022],"spatialReference":{"wkid":4326}}}
{"_id":{"$oid":"5bde387e0921aa05cc552e81"},"DATE":"2018-03-14T04:00:00.000Z","DRNUMB":18199702,"TIMESTART":1042,"TIMEEND":1042,"ADDRESS":"300 CLOVER RIDGE DR","CODE_DEFINED":"LARCENY","Attempt":null,"Arrest":null,"LarcenyCode":"All Other","FID":83,"location":{"type":"Point","coordinates":[-76.092920888,43.064575764],"spatialReference":{"wkid":4326}}}
{"_id":{"$oid":"5bde387e0921aa05cc552e82"},"DATE":"2018-03-14T04:00:00.000Z","DRNUMB":18200346,"TIMESTART":1931,"TIMEEND":1931,"ADDRESS":"1 DESTINY USA DR","CODE_DEFINED":"LARCENY","Attempt":null,"Arrest":null,"LarcenyCode":"All Other","FID":84,"location":{"type":"Point","coordinates":[-76.17424753,43.069913309],"spatialReference":{"wkid":4326}}}
{"_id":{"$oid":"5bde387e0921aa05cc552e83"},"DATE":"2018-03-14T04:00:00.000Z","DRNUMB":18200395,"TIMESTART":2005,"TIMEEND":2005,"ADDRESS":"400 GRANT BLVD","CODE_DEFINED":"ROBBERY","Attempt":null,"Arrest":null,"LarcenyCode":"All Other","FID":85,"location":{"type":"Point","coordinates":[-76.121548757,43.07157304],"spatialReference":{"wkid":4326}}}
{"_id":{"$oid":"5bde387e0921aa05cc552e84"},"DATE":"2018-03-15T04:00:00.000Z","DRNUMB":18900198,"TIMESTART":1228,"TIMEEND":1415,"ADDRESS":"1000 S  SALINA ST","CODE_DEFINED":"LARCENY","Attempt":null,"Arrest":null,"LarcenyCode":"All Other","FID":86,"location":{"type":"Point","coordinates":[-76.149887588,43.037878475],"spatialReference":{"wkid":4326}}}
{"_id":{"$oid":"5bde387e0921aa05cc552e85"},"DATE":"2018-03-16T04:00:00.000Z","DRNUMB":18202355,"TIMESTART":933,"TIMEEND":933,"ADDRESS":"800 N  SALINA ST","CODE_DEFINED":"LARCENY","Attempt":null,"Arrest":null,"LarcenyCode":"All Other","FID":87,"location":{"type":"Point","coordinates":[-76.154158646,43.061870346],"spatialReference":{"wkid":4326}}}
{"_id":{"$oid":"5bde387e0921aa05cc552e86"},"DATE":"2018-03-16T04:00:00.000Z","DRNUMB":18203236,"TIMESTART":2116,"TIMEEND":2116,"ADDRESS":"300 W  KIRKPATRICK ST","CODE_DEFINED":"LARCENY","Attempt":null,"Arrest":"Yes","LarcenyCode":"All Other","FID":88,"location":{"type":"Point","coordinates":[-76.161405698,43.060910773],"spatialReference":{"wkid":4326}}}
{"_id":{"$oid":"5bde387e0921aa05cc552e87"},"DATE":"2018-03-16T04:00:00.000Z","DRNUMB":18203808,"TIMESTART":2028,"TIMEEND":2028,"ADDRESS":"1 DESTINY USA DR","CODE_DEFINED":"LARCENY","Attempt":null,"Arrest":null,"LarcenyCode":"All Other","FID":89,"location":{"type":"Point","coordinates":[-76.17424753,43.069913309],"spatialReference":{"wkid":4326}}}
{"_id":{"$oid":"5bde387e0921aa05cc552e88"},"DATE":"2018-03-16T04:00:00.000Z","DRNUMB":18208980,"TIMESTART":1800,"TIMEEND":1800,"ADDRESS":"1 DESTINY USA DR","CODE_DEFINED":"LARCENY","Attempt":null,"Arrest":"Yes","LarcenyCode":"All Other","FID":90,"location":{"type":"Point","coordinates":[-76.17424753,43.069913309],"spatialReference":{"wkid":4326}}}
{"_id":{"$oid":"5bde387e0921aa05cc552e89"},"DATE":"2018-03-16T04:00:00.000Z","DRNUMB":18900199,"TIMESTART":1101,"TIMEEND":1215,"ADDRESS":"100 REMINGTON AV","CODE_DEFINED":"LARCENY","Attempt":null,"Arrest":null,"LarcenyCode":"All Other","FID":91,"location":{"type":"Point","coordinates":[-76.133242941,43.018492262],"spatialReference":{"wkid":4326}}}
{"_id":{"$oid":"5bde387e0921aa05cc552e8a"},"DATE":"2018-03-16T04:00:00.000Z","DRNUMB":18900201,"TIMESTART":2000,"TIMEEND":2000,"ADDRESS":"300 S  FRANKIN ST","CODE_DEFINED":"LARCENY","Attempt":null,"Arrest":"Yes","LarcenyCode":"All Other","FID":92,"location":{"type":"Point","coordinates":[-76.155607957,43.048651279],"spatialReference":{"wkid":4326}}}
{"_id":{"$oid":"5bde387e0921aa05cc552e8b"},"DATE":"2018-03-17T04:00:00.000Z","DRNUMB":18900205,"TIMESTART":1630,"TIMEEND":1930,"ADDRESS":"1400 W  GENESEE ST","CODE_DEFINED":"LARCENY","Attempt":null,"Arrest":null,"LarcenyCode":"All Other","FID":93,"location":{"type":"Point","coordinates":[-76.180271033,43.052586355],"spatialReference":{"wkid":4326}}}
{"_id":{"$oid":"5bde387e0921aa05cc552e8c"},"DATE":"2018-03-18T04:00:00.000Z","DRNUMB":18204875,"TIMESTART":50,"TIMEEND":50,"ADDRESS":"1900 W  FAYETTE ST","CODE_DEFINED":"LARCENY","Attempt":null,"Arrest":null,"LarcenyCode":"All Other","FID":94,"location":{"type":"Point","coordinates":[-76.185077871,43.053802238],"spatialReference":{"wkid":4326}}}
{"_id":{"$oid":"5bde387e0921aa05cc552e8d"},"DATE":"2018-03-19T04:00:00.000Z","DRNUMB":18205888,"TIMESTART":436,"TIMEEND":436,"ADDRESS":"1900 SOUTH AV","CODE_DEFINED":"BURGLARY","Attempt":null,"Arrest":null,"LarcenyCode":"All Other","FID":95,"location":{"type":"Point","coordinates":[-76.160751536,43.019248533],"spatialReference":{"wkid":4326}}}
{"_id":{"$oid":"5bde387e0921aa05cc552e8e"},"DATE":"2018-03-19T04:00:00.000Z","DRNUMB":18206174,"TIMESTART":1035,"TIMEEND":1035,"ADDRESS":"100 REDFIELD PL","CODE_DEFINED":"BURGLARY","Attempt":null,"Arrest":null,"LarcenyCode":"All Other","FID":96,"location":{"type":"Point","coordinates":[-76.123191573,43.037430934],"spatialReference":{"wkid":4326}}}
{"_id":{"$oid":"5bde387e0921aa05cc552e8f"},"DATE":"2018-03-19T04:00:00.000Z","DRNUMB":18206320,"TIMESTART":1146,"TIMEEND":1235,"ADDRESS":"1100 WESTMORELAND AV","CODE_DEFINED":"LARCENY","Attempt":null,"Arrest":null,"LarcenyCode":"All Other","FID":97,"location":{"type":"Point","coordinates":[-76.113667381,43.032535376],"spatialReference":{"wkid":4326}}}
{"_id":{"$oid":"5bde387e0921aa05cc552e90"},"DATE":"2018-03-19T04:00:00.000Z","DRNUMB":18206681,"TIMESTART":1655,"TIMEEND":1655,"ADDRESS":"200 KIRK AV","CODE_DEFINED":"LARCENY","Attempt":null,"Arrest":"Yes","LarcenyCode":"All Other","FID":98,"location":{"type":"Point","coordinates":[-76.149508384,43.029083063],"spatialReference":{"wkid":4326}}}
{"_id":{"$oid":"5bde387e0921aa05cc552e91"},"DATE":"2018-03-19T04:00:00.000Z","DRNUMB":18206940,"TIMESTART":1755,"TIMEEND":1755,"ADDRESS":"1 DESTINY USA DR","CODE_DEFINED":"LARCENY","Attempt":null,"Arrest":null,"LarcenyCode":"All Other","FID":99,"location":{"type":"Point","coordinates":[-76.17424753,43.069913309],"spatialReference":{"wkid":4326}}}
{"_id":{"$oid":"5bde387e0921aa05cc552e92"},"DATE":"2018-03-19T04:00:00.000Z","DRNUMB":18251657,"TIMESTART":2130,"TIMEEND":2130,"ADDRESS":"1 DESTINY USA DR","CODE_DEFINED":"LARCENY","Attempt":null,"Arrest":null,"LarcenyCode":"All Other","FID":100,"location":{"type":"Point","coordinates":[-76.17424753,43.069913309],"spatialReference":{"wkid":4326}}}
{"_id":{"$oid":"5bde387e0921aa05cc552e93"},"DATE":"2018-01-28T05:00:00.000Z","DRNUMB":18140072,"TIMESTART":2018,"TIMEEND":2018,"ADDRESS":"300 ROOSEVELT AV","CODE_DEFINED":"ROBBERY","Attempt":"A","Arrest":null,"LarcenyCode":"All Other","FID":101,"location":{"type":"Point","coordinates":[-76.117478735,43.033489261],"spatialReference":{"wkid":4326}}}
{"_id":{"$oid":"5bde387e0921aa05cc552e94"},"DATE":"2018-01-28T05:00:00.000Z","DRNUMB":18140080,"TIMESTART":2020,"TIMEEND":2020,"ADDRESS":"300 KENSINGTON PL","CODE_DEFINED":"ROBBERY","Attempt":null,"Arrest":null,"LarcenyCode":"All Other","FID":102,"location":{"type":"Point","coordinates":[-76.119644367,43.027866439],"spatialReference":{"wkid":4326}}}
{"_id":{"$oid":"5bde387e0921aa05cc552e95"},"DATE":"2018-01-28T05:00:00.000Z","DRNUMB":18140156,"TIMESTART":2205,"TIMEEND":2205,"ADDRESS":"500 PACIFIC AV","CODE_DEFINED":"LARCENY","Attempt":null,"Arrest":null,"LarcenyCode":"All Other","FID":103,"location":{"type":"Point","coordinates":[-76.152958565,43.008310134],"spatialReference":{"wkid":4326}}}
{"_id":{"$oid":"5bde387e0921aa05cc552e96"},"DATE":"2018-01-28T05:00:00.000Z","DRNUMB":18900086,"TIMESTART":1330,"TIMEEND":1345,"ADDRESS":"100 SOLAR ST","CODE_DEFINED":"LARCENY","Attempt":null,"Arrest":null,"LarcenyCode":"All Other","FID":104,"location":{"type":"Point","coordinates":[-76.157525092,43.056680457],"spatialReference":{"wkid":4326}}}
{"_id":{"$oid":"5bde387e0921aa05cc552e97"},"DATE":"2018-01-29T05:00:00.000Z","DRNUMB":18141430,"TIMESTART":1300,"TIMEEND":1300,"ADDRESS":"1600 SPRING ST","CODE_DEFINED":"LARCENY","Attempt":null,"Arrest":null,"LarcenyCode":"All Other","FID":105,"location":{"type":"Point","coordinates":[-76.162687596,43.073447748],"spatialReference":{"wkid":4326}}}
{"_id":{"$oid":"5bde387e0921aa05cc552e98"},"DATE":"2018-01-30T05:00:00.000Z","DRNUMB":18142282,"TIMESTART":1218,"TIMEEND":1218,"ADDRESS":"1000 S  GEDDES ST","CODE_DEFINED":"LARCENY","Attempt":null,"Arrest":"Yes","LarcenyCode":"All Other","FID":106,"location":{"type":"Point","coordinates":[-76.17333503,43.03775679],"spatialReference":{"wkid":4326}}}
{"_id":{"$oid":"5bde387e0921aa05cc552e99"},"DATE":"2018-01-30T05:00:00.000Z","DRNUMB":18142407,"TIMESTART":1337,"TIMEEND":1337,"ADDRESS":"100 SIMON DR","CODE_DEFINED":"LARCENY","Attempt":null,"Arrest":null,"LarcenyCode":"All Other","FID":107,"location":{"type":"Point","coordinates":[-76.103913658,43.055703991],"spatialReference":{"wkid":4326}}}
{"_id":{"$oid":"5bde387e0921aa05cc552e9a"},"DATE":"2018-01-30T05:00:00.000Z","DRNUMB":18142508,"TIMESTART":1521,"TIMEEND":1521,"ADDRESS":"100 GRAPE TER","CODE_DEFINED":"LARCENY","Attempt":null,"Arrest":null,"LarcenyCode":"All Other","FID":108,"location":{"type":"Point","coordinates":[-76.145724587,43.036454482],"spatialReference":{"wkid":4326}}}
{"_id":{"$oid":"5bde387e0921aa05cc552e9b"},"DATE":"2018-01-31T05:00:00.000Z","DRNUMB":18143233,"TIMESTART":715,"TIMEEND":715,"ADDRESS":"900 JAMES ST","CODE_DEFINED":"LARCENY","Attempt":null,"Arrest":null,"LarcenyCode":"All Other","FID":109,"location":{"type":"Point","coordinates":[-76.138517078,43.057191693],"spatialReference":{"wkid":4326}}}
{"_id":{"$oid":"5bde387e0921aa05cc552e9c"},"DATE":"2018-01-31T05:00:00.000Z","DRNUMB":18143382,"TIMESTART":1900,"TIMEEND":730,"ADDRESS":"600 VINE ST","CODE_DEFINED":"LARCENY","Attempt":null,"Arrest":null,"LarcenyCode":"All Other","FID":110,"location":{"type":"Point","coordinates":[-76.125705518,43.059125179],"spatialReference":{"wkid":4326}}}
{"_id":{"$oid":"5bde387e0921aa05cc552e9d"},"DATE":"2018-01-31T05:00:00.000Z","DRNUMB":18144238,"TIMESTART":2053,"TIMEEND":2053,"ADDRESS":"4700 ONONDAGA BLVD","CODE_DEFINED":"ROBBERY","Attempt":null,"Arrest":null,"LarcenyCode":"All Other","FID":111,"location":{"type":"Point","coordinates":[-76.193471131,43.03233387],"spatialReference":{"wkid":4326}}}
{"_id":{"$oid":"5bde387e0921aa05cc552e9e"},"DATE":"2018-02-01T05:00:00.000Z","DRNUMB":18144535,"TIMESTART":403,"TIMEEND":403,"ADDRESS":"3900 S  SALINA ST","CODE_DEFINED":"ROBBERY","Attempt":null,"Arrest":"Yes","LarcenyCode":"All Other","FID":112,"location":{"type":"Point","coordinates":[-76.142264198,43.010568212],"spatialReference":{"wkid":4326}}}
{"_id":{"$oid":"5bde387e0921aa05cc552e9f"},"DATE":"2018-02-01T05:00:00.000Z","DRNUMB":18144819,"TIMESTART":1019,"TIMEEND":1019,"ADDRESS":"1000 COL EILEEN COLLINS BLVD","CODE_DEFINED":"LARCENY","Attempt":null,"Arrest":null,"LarcenyCode":"All Other","FID":113,"location":{"type":"Point","coordinates":[-76.111996656,43.11296774],"spatialReference":{"wkid":4326}}}
{"_id":{"$oid":"5bde387e0921aa05cc552ea0"},"DATE":"2018-02-01T05:00:00.000Z","DRNUMB":18145163,"TIMESTART":1516,"TIMEEND":1516,"ADDRESS":"200 VAN RENSSELAER ST","CODE_DEFINED":"LARCENY","Attempt":null,"Arrest":null,"LarcenyCode":"All Other","FID":114,"location":{"type":"Point","coordinates":[-76.16612543,43.051094466],"spatialReference":{"wkid":4326}}}
{"_id":{"$oid":"5bde387e0921aa05cc552ea1"},"DATE":"2018-02-01T05:00:00.000Z","DRNUMB":18184328,"TIMESTART":0,"TIMEEND":0,"ADDRESS":"600 WESTMORELAND AV","CODE_DEFINED":"LARCENY","Attempt":null,"Arrest":null,"LarcenyCode":"All Other","FID":115,"location":{"type":"Point","coordinates":[-76.114436747,43.04312618],"spatialReference":{"wkid":4326}}}
{"_id":{"$oid":"5bde387e0921aa05cc552ea2"},"DATE":"2018-02-02T05:00:00.000Z","DRNUMB":18146053,"TIMESTART":1200,"TIMEEND":820,"ADDRESS":"800 WOLF ST","CODE_DEFINED":"LARCENY","Attempt":null,"Arrest":"Yes","LarcenyCode":"All Other","FID":116,"location":{"type":"Point","coordinates":[-76.159776151,43.07715239],"spatialReference":{"wkid":4326}}}
{"_id":{"$oid":"5bde387e0921aa05cc552ea3"},"DATE":"2018-02-02T05:00:00.000Z","DRNUMB":18146537,"TIMESTART":1457,"TIMEEND":1457,"ADDRESS":"300 W  FAYETTE ST","CODE_DEFINED":"LARCENY","Attempt":null,"Arrest":null,"LarcenyCode":"All Other","FID":117,"location":{"type":"Point","coordinates":[-76.156163665,43.048751489],"spatialReference":{"wkid":4326}}}
{"_id":{"$oid":"5bde387e0921aa05cc552ea4"},"DATE":"2018-02-02T05:00:00.000Z","DRNUMB":18146578,"TIMESTART":1531,"TIMEEND":1531,"ADDRESS":"300 S  CLINTON ST","CODE_DEFINED":"LARCENY","Attempt":null,"Arrest":null,"LarcenyCode":"All Other","FID":118,"location":{"type":"Point","coordinates":[-76.153655638,43.048633946],"spatialReference":{"wkid":4326}}}
{"_id":{"$oid":"5bde387e0921aa05cc552ea5"},"DATE":"2018-02-02T05:00:00.000Z","DRNUMB":18146591,"TIMESTART":1541,"TIMEEND":1541,"ADDRESS":"600 MONTGOMERY ST","CODE_DEFINED":"LARCENY","Attempt":"A","Arrest":"Yes","LarcenyCode":"All Other","FID":119,"location":{"type":"Point","coordinates":[-76.148900599,43.044138],"spatialReference":{"wkid":4326}}}
{"_id":{"$oid":"5bde387e0921aa05cc552ea6"},"DATE":"2018-02-02T05:00:00.000Z","DRNUMB":18151330,"TIMESTART":1700,"TIMEEND":1700,"ADDRESS":"100 POLK ST","CODE_DEFINED":"LARCENY","Attempt":null,"Arrest":null,"LarcenyCode":"All Other","FID":120,"location":{"type":"Point","coordinates":[-76.093952024,43.053587551],"spatialReference":{"wkid":4326}}}
{"_id":{"$oid":"5bde387e0921aa05cc552ea7"},"DATE":"2018-02-02T05:00:00.000Z","DRNUMB":18900100,"TIMESTART":1620,"TIMEEND":2010,"ADDRESS":"400 LOOMIS AV","CODE_DEFINED":"LARCENY","Attempt":null,"Arrest":null,"LarcenyCode":"All Other","FID":121,"location":{"type":"Point","coordinates":[-76.15348095,43.006949368],"spatialReference":{"wkid":4326}}}
{"_id":{"$oid":"5bde387e0921aa05cc552ea8"},"DATE":"2018-02-03T05:00:00.000Z","DRNUMB":18900102,"TIMESTART":2140,"TIMEEND":2200,"ADDRESS":"1 DESTINY USA DR","CODE_DEFINED":"LARCENY","Attempt":null,"Arrest":null,"LarcenyCode":"All Other","FID":122,"location":{"type":"Point","coordinates":[-76.17424753,43.069913309],"spatialReference":{"wkid":4326}}}
{"_id":{"$oid":"5bde387e0921aa05cc552ea9"},"DATE":"2018-02-04T05:00:00.000Z","DRNUMB":18148748,"TIMESTART":1100,"TIMEEND":1200,"ADDRESS":"1600 COURT ST","CODE_DEFINED":"LARCENY","Attempt":null,"Arrest":null,"LarcenyCode":"All Other","FID":123,"location":{"type":"Point","coordinates":[-76.14542453,43.078806129],"spatialReference":{"wkid":4326}}}
{"_id":{"$oid":"5bde387e0921aa05cc552eaa"},"DATE":"2018-02-05T05:00:00.000Z","DRNUMB":18149701,"TIMESTART":850,"TIMEEND":850,"ADDRESS":"700 IRVING AV","CODE_DEFINED":"ROBBERY","Attempt":null,"Arrest":null,"LarcenyCode":"All Other","FID":124,"location":{"type":"Point","coordinates":[-76.13790853,43.042491199],"spatialReference":{"wkid":4326}}}
{"_id":{"$oid":"5bde387e0921aa05cc552eab"},"DATE":"2018-02-05T05:00:00.000Z","DRNUMB":18149982,"TIMESTART":1324,"TIMEEND":1324,"ADDRESS":"200 CRADDOCK ST","CODE_DEFINED":"BURGLARY","Attempt":null,"Arrest":null,"LarcenyCode":"All Other","FID":125,"location":{"type":"Point","coordinates":[-76.162704522,43.022011342],"spatialReference":{"wkid":4326}}}
{"_id":{"$oid":"5bde387e0921aa05cc552eac"},"DATE":"2018-02-05T05:00:00.000Z","DRNUMB":18157709,"TIMESTART":2300,"TIMEEND":100,"ADDRESS":"700 IRVING AV","CODE_DEFINED":"LARCENY","Attempt":null,"Arrest":null,"LarcenyCode":"All Other","FID":126,"location":{"type":"Point","coordinates":[-76.13790853,43.042491199],"spatialReference":{"wkid":4326}}}
{"_id":{"$oid":"5bde387e0921aa05cc552ead"},"DATE":"2018-02-05T05:00:00.000Z","DRNUMB":18900106,"TIMESTART":2125,"TIMEEND":2125,"ADDRESS":"400 BUTTERNUT ST","CODE_DEFINED":"LARCENY","Attempt":null,"Arrest":null,"LarcenyCode":"All Other","FID":127,"location":{"type":"Point","coordinates":[-76.149809016,43.058659684],"spatialReference":{"wkid":4326}}}
{"_id":{"$oid":"5bde387e0921aa05cc552eae"},"DATE":"2018-02-06T05:00:00.000Z","DRNUMB":18151538,"TIMESTART":1459,"TIMEEND":1459,"ADDRESS":"300 W  FAYETTE ST","CODE_DEFINED":"LARCENY","Attempt":null,"Arrest":null,"LarcenyCode":"All Other","FID":128,"location":{"type":"Point","coordinates":[-76.156163665,43.048751489],"spatialReference":{"wkid":4326}}}
{"_id":{"$oid":"5bde387e0921aa05cc552eaf"},"DATE":"2018-02-06T05:00:00.000Z","DRNUMB":18152034,"TIMESTART":2216,"TIMEEND":2216,"ADDRESS":"4100 E  GENESEE ST","CODE_DEFINED":"LARCENY","Attempt":null,"Arrest":null,"LarcenyCode":"All Other","FID":129,"location":{"type":"Point","coordinates":[-76.074180539,43.036451778],"spatialReference":{"wkid":4326}}}
{"_id":{"$oid":"5bde387e0921aa05cc552eb0"},"DATE":"2018-02-06T05:00:00.000Z","DRNUMB":18152438,"TIMESTART":1720,"TIMEEND":1720,"ADDRESS":"200 MILTON AV","CODE_DEFINED":"LARCENY","Attempt":null,"Arrest":null,"LarcenyCode":"All Other","FID":130,"location":{"type":"Point","coordinates":[-76.186376244,43.0478432],"spatialReference":{"wkid":4326}}}
{"_id":{"$oid":"5bde387e0921aa05cc552eb1"},"DATE":"2018-02-06T05:00:00.000Z","DRNUMB":18175633,"TIMESTART":1600,"TIMEEND":1200,"ADDRESS":"700 PARK ST","CODE_DEFINED":"LARCENY","Attempt":null,"Arrest":null,"LarcenyCode":"All Other","FID":131,"location":{"type":"Point","coordinates":[-76.144054405,43.062972236],"spatialReference":{"wkid":4326}}}
{"_id":{"$oid":"5bde387e0921aa05cc552eb2"},"DATE":"2018-02-07T05:00:00.000Z","DRNUMB":18207813,"TIMESTART":2314,"TIMEEND":2314,"ADDRESS":"100 KIRKPATRICK ST","CODE_DEFINED":"LARCENY","Attempt":null,"Arrest":null,"LarcenyCode":"All Other","FID":132,"location":{"type":"Point","coordinates":[-76.157800649,43.063007019],"spatialReference":{"wkid":4326}}}
{"_id":{"$oid":"5bde387e0921aa05cc552eb3"},"DATE":"2018-02-08T05:00:00.000Z","DRNUMB":18153297,"TIMESTART":2350,"TIMEEND":1,"ADDRESS":"100 CRYSLER ST","CODE_DEFINED":"BURGLARY","Attempt":null,"Arrest":"Yes","LarcenyCode":"All Other","FID":133,"location":{"type":"Point","coordinates":[-76.180970669,43.048393655],"spatialReference":{"wkid":4326}}}
{"_id":{"$oid":"5bde387e0921aa05cc552eb4"},"DATE":"2018-02-08T05:00:00.000Z","DRNUMB":18153712,"TIMESTART":1500,"TIMEEND":900,"ADDRESS":"400 DURSTON AV","CODE_DEFINED":"LARCENY","Attempt":null,"Arrest":null,"LarcenyCode":"All Other","FID":134,"location":{"type":"Point","coordinates":[-76.127212583,43.068511708],"spatialReference":{"wkid":4326}}}
{"_id":{"$oid":"5bde387e0921aa05cc552eb5"},"DATE":"2018-02-08T05:00:00.000Z","DRNUMB":18153794,"TIMESTART":1132,"TIMEEND":1132,"ADDRESS":"200 WILLUMAE DR","CODE_DEFINED":"BURGLARY","Attempt":"A","Arrest":null,"LarcenyCode":"All Other","FID":135,"location":{"type":"Point","coordinates":[-76.152359945,43.077229469],"spatialReference":{"wkid":4326}}}
{"_id":{"$oid":"5bde387e0921aa05cc552eb6"},"DATE":"2018-02-08T05:00:00.000Z","DRNUMB":18153946,"TIMESTART":1325,"TIMEEND":1325,"ADDRESS":"400 GRANT AV","CODE_DEFINED":"BURGLARY","Attempt":null,"Arrest":null,"LarcenyCode":"All Other","FID":136,"location":{"type":"Point","coordinates":[-76.177043081,43.031884174],"spatialReference":{"wkid":4326}}}
{"_id":{"$oid":"5bde387e0921aa05cc552eb7"},"DATE":"2018-02-08T05:00:00.000Z","DRNUMB":18159295,"TIMESTART":1200,"TIMEEND":1200,"ADDRESS":"100 VICTORIA PL","CODE_DEFINED":"LARCENY","Attempt":null,"Arrest":null,"LarcenyCode":"All Other","FID":137,"location":{"type":"Point","coordinates":[-76.11890894,43.040606543],"spatialReference":{"wkid":4326}}}
{"_id":{"$oid":"5bde387e0921aa05cc552eb8"},"DATE":"2018-02-10T05:00:00.000Z","DRNUMB":18156782,"TIMESTART":1344,"TIMEEND":1344,"ADDRESS":"300 WAVERLY AV","CODE_DEFINED":"LARCENY","Attempt":null,"Arrest":null,"LarcenyCode":"All Other","FID":138,"location":{"type":"Point","coordinates":[-76.13184447,43.040465532],"spatialReference":{"wkid":4326}}}
{"_id":{"$oid":"5bde387e0921aa05cc552eb9"},"DATE":"2018-02-10T05:00:00.000Z","DRNUMB":18157104,"TIMESTART":1925,"TIMEEND":1925,"ADDRESS":"700 SCHUYLER ST","CODE_DEFINED":"ROBBERY","Attempt":null,"Arrest":null,"LarcenyCode":"All Other","FID":139,"location":{"type":"Point","coordinates":[-76.191350732,43.047493486],"spatialReference":{"wkid":4326}}}
{"_id":{"$oid":"5bde387e0921aa05cc552eba"},"DATE":"2018-02-10T05:00:00.000Z","DRNUMB":18901117,"TIMESTART":2225,"TIMEEND":2225,"ADDRESS":"1100 W  ONONDAGA ST","CODE_DEFINED":"LARCENY","Attempt":null,"Arrest":null,"LarcenyCode":"All Other","FID":140,"location":{"type":"Point","coordinates":[-76.170033121,43.034196009],"spatialReference":{"wkid":4326}}}
{"_id":{"$oid":"5bde387e0921aa05cc552ebb"},"DATE":"2018-02-11T05:00:00.000Z","DRNUMB":18159567,"TIMESTART":1800,"TIMEEND":1200,"ADDRESS":"300 LEXINGTON AV","CODE_DEFINED":"LARCENY","Attempt":null,"Arrest":null,"LarcenyCode":"All Other","FID":141,"location":{"type":"Point","coordinates":[-76.119589949,43.04715054],"spatialReference":{"wkid":4326}}}
{"_id":{"$oid":"5bde387e0921aa05cc552ebc"},"DATE":"2018-02-11T05:00:00.000Z","DRNUMB":18900118,"TIMESTART":2255,"TIMEEND":355,"ADDRESS":"0 CENTENNIAL DR","CODE_DEFINED":"LARCENY","Attempt":null,"Arrest":null,"LarcenyCode":"All Other","FID":142,"location":{"type":"Point","coordinates":[-76.160414593,43.027216115],"spatialReference":{"wkid":4326}}}
{"_id":{"$oid":"5bde387e0921aa05cc552ebd"},"DATE":"2018-02-12T05:00:00.000Z","DRNUMB":18159446,"TIMESTART":1235,"TIMEEND":1235,"ADDRESS":"500 ERIE BLVD W","CODE_DEFINED":"LARCENY","Attempt":null,"Arrest":null,"LarcenyCode":"All Other","FID":143,"location":{"type":"Point","coordinates":[-76.161077732,43.049944151],"spatialReference":{"wkid":4326}}}
{"_id":{"$oid":"5bde387e0921aa05cc552ebe"},"DATE":"2018-02-12T05:00:00.000Z","DRNUMB":18159511,"TIMESTART":1450,"TIMEEND":1450,"ADDRESS":"700 E  ADAMS ST","CODE_DEFINED":"LARCENY","Attempt":null,"Arrest":null,"LarcenyCode":"All Other","FID":144,"location":{"type":"Point","coordinates":[-76.141893135,43.042685554],"spatialReference":{"wkid":4326}}}
{"_id":{"$oid":"5bde387e0921aa05cc552ebf"},"DATE":"2018-02-12T05:00:00.000Z","DRNUMB":18159967,"TIMESTART":2109,"TIMEEND":2109,"ADDRESS":"2200 MIDLAND AV","CODE_DEFINED":"ROBBERY","Attempt":null,"Arrest":null,"LarcenyCode":"All Other","FID":145,"location":{"type":"Point","coordinates":[-76.1485767,43.018020074],"spatialReference":{"wkid":4326}}}
{"_id":{"$oid":"5bde387e0921aa05cc552ec0"},"DATE":"2018-02-13T05:00:00.000Z","DRNUMB":18160263,"TIMESTART":257,"TIMEEND":257,"ADDRESS":"1300 BUTTERNUT ST","CODE_DEFINED":"LARCENY","Attempt":null,"Arrest":null,"LarcenyCode":"All Other","FID":146,"location":{"type":"Point","coordinates":[-76.143272419,43.068617749],"spatialReference":{"wkid":4326}}}
{"_id":{"$oid":"5bde387e0921aa05cc552ec1"},"DATE":"2018-02-13T05:00:00.000Z","DRNUMB":18160575,"TIMESTART":1400,"TIMEEND":900,"ADDRESS":"600 CATHERINE ST","CODE_DEFINED":"BURGLARY","Attempt":null,"Arrest":null,"LarcenyCode":"All Other","FID":147,"location":{"type":"Point","coordinates":[-76.14439957,43.056691821],"spatialReference":{"wkid":4326}}}
{"_id":{"$oid":"5bde387e0921aa05cc552ec2"},"DATE":"2018-02-13T05:00:00.000Z","DRNUMB":18161768,"TIMESTART":1430,"TIMEEND":1430,"ADDRESS":"1100 S  GEDDES ST","CODE_DEFINED":"ROBBERY","Attempt":null,"Arrest":null,"LarcenyCode":"All Other","FID":148,"location":{"type":"Point","coordinates":[-76.173791445,43.036635614],"spatialReference":{"wkid":4326}}}
{"_id":{"$oid":"5bde387e0921aa05cc552ec3"},"DATE":"2018-02-14T05:00:00.000Z","DRNUMB":18161746,"TIMESTART":425,"TIMEEND":425,"ADDRESS":"900 E  BRIGHTON AV","CODE_DEFINED":"LARCENY","Attempt":null,"Arrest":null,"LarcenyCode":"All Other","FID":149,"location":{"type":"Point","coordinates":[-76.1307125,43.004333903],"spatialReference":{"wkid":4326}}}
{"_id":{"$oid":"5bde387e0921aa05cc552ec4"},"DATE":"2018-02-15T05:00:00.000Z","DRNUMB":18246748,"TIMESTART":0,"TIMEEND":2339,"ADDRESS":"100 HOPE AV","CODE_DEFINED":"LARCENY","Attempt":null,"Arrest":null,"LarcenyCode":"All Other","FID":150,"location":{"type":"Point","coordinates":[-76.152494965,43.023730909],"spatialReference":{"wkid":4326}}}
{"_id":{"$oid":"5bde387e0921aa05cc552ec5"},"DATE":"2018-02-16T05:00:00.000Z","DRNUMB":18167962,"TIMESTART":1700,"TIMEEND":1700,"ADDRESS":"600 TALLMAN ST","CODE_DEFINED":"LARCENY","Attempt":null,"Arrest":null,"LarcenyCode":"All Other","FID":151,"location":{"type":"Point","coordinates":[-76.15720471,43.036390718],"spatialReference":{"wkid":4326}}}
{"_id":{"$oid":"5bde387e0921aa05cc552ec6"},"DATE":"2018-02-16T05:00:00.000Z","DRNUMB":18900126,"TIMESTART":900,"TIMEEND":1425,"ADDRESS":"600 S  SALINA ST","CODE_DEFINED":"LARCENY","Attempt":null,"Arrest":null,"LarcenyCode":"All Other","FID":152,"location":{"type":"Point","coordinates":[-76.151494411,43.042514815],"spatialReference":{"wkid":4326}}}
{"_id":{"$oid":"5bde387e0921aa05cc552ec7"},"DATE":"2018-02-16T05:00:00.000Z","DRNUMB":18900127,"TIMESTART":800,"TIMEEND":1600,"ADDRESS":"500 S  SALINA ST","CODE_DEFINED":"LARCENY","Attempt":null,"Arrest":null,"LarcenyCode":"All Other","FID":153,"location":{"type":"Point","coordinates":[-76.152110803,43.043964465],"spatialReference":{"wkid":4326}}}
{"_id":{"$oid":"5bde387e0921aa05cc552ec8"},"DATE":"2018-02-17T05:00:00.000Z","DRNUMB":18166238,"TIMESTART":540,"TIMEEND":540,"ADDRESS":"500 BUTTERNUT ST","CODE_DEFINED":"LARCENY","Attempt":null,"Arrest":"Yes","LarcenyCode":"All Other","FID":154,"location":{"type":"Point","coordinates":[-76.14783229,43.059485735],"spatialReference":{"wkid":4326}}}
{"_id":{"$oid":"5bde387e0921aa05cc552ec9"},"DATE":"2018-02-17T05:00:00.000Z","DRNUMB":18166990,"TIMESTART":1943,"TIMEEND":1943,"ADDRESS":"300 N  MIDLER AV","CODE_DEFINED":"ROBBERY","Attempt":null,"Arrest":null,"LarcenyCode":"All Other","FID":155,"location":{"type":"Point","coordinates":[-76.105603937,43.073918864],"spatialReference":{"wkid":4326}}}
{"_id":{"$oid":"5bde387e0921aa05cc552eca"},"DATE":"2018-02-17T05:00:00.000Z","DRNUMB":18166994,"TIMESTART":1915,"TIMEEND":1915,"ADDRESS":"1300 S  SALINA ST","CODE_DEFINED":"LARCENY","Attempt":null,"Arrest":"Yes","LarcenyCode":"All Other","FID":156,"location":{"type":"Point","coordinates":[-76.149377075,43.034443397],"spatialReference":{"wkid":4326}}}
{"_id":{"$oid":"5bde387e0921aa05cc552ecb"},"DATE":"2018-02-17T05:00:00.000Z","DRNUMB":18167108,"TIMESTART":2126,"TIMEEND":2126,"ADDRESS":"400 E  BRIGHTON AV","CODE_DEFINED":"ROBBERY","Attempt":"A","Arrest":null,"LarcenyCode":"All Other","FID":157,"location":{"type":"Point","coordinates":[-76.137777194,43.01752063],"spatialReference":{"wkid":4326}}}
{"_id":{"$oid":"5bde387e0921aa05cc552ecc"},"DATE":"2018-02-17T05:00:00.000Z","DRNUMB":18900132,"TIMESTART":1400,"TIMEEND":1403,"ADDRESS":"700 BUTTERNUT ST","CODE_DEFINED":"LARCENY","Attempt":null,"Arrest":null,"LarcenyCode":"All Other","FID":158,"location":{"type":"Point","coordinates":[-76.145751036,43.060462497],"spatialReference":{"wkid":4326}}}
{"_id":{"$oid":"5bde387e0921aa05cc552ecd"},"DATE":"2018-02-18T05:00:00.000Z","DRNUMB":18167243,"TIMESTART":10,"TIMEEND":19,"ADDRESS":"100 GRIFFITHS ST","CODE_DEFINED":"LARCENY","Attempt":null,"Arrest":"Yes","LarcenyCode":"All Other","FID":159,"location":{"type":"Point","coordinates":[-76.143351319,43.068282383],"spatialReference":{"wkid":4326}}}
{"_id":{"$oid":"5bde387e0921aa05cc552ece"},"DATE":"2018-02-18T05:00:00.000Z","DRNUMB":18167679,"TIMESTART":1029,"TIMEEND":1029,"ADDRESS":"100 STEUBEN ST","CODE_DEFINED":"LARCENY","Attempt":null,"Arrest":null,"LarcenyCode":"All Other","FID":160,"location":{"type":"Point","coordinates":[-76.152002097,43.065420143],"spatialReference":{"wkid":4326}}}
{"_id":{"$oid":"5bde387e0921aa05cc552ecf"},"DATE":"2018-02-18T05:00:00.000Z","DRNUMB":18168144,"TIMESTART":1815,"TIMEEND":1847,"ADDRESS":"100 MOORE AV","CODE_DEFINED":"LARCENY","Attempt":null,"Arrest":"Yes","LarcenyCode":"All Other","FID":161,"location":{"type":"Point","coordinates":[-76.137151409,43.026047015],"spatialReference":{"wkid":4326}}}
{"_id":{"$oid":"5bde387e0921aa05cc552ed0"},"DATE":"2018-02-19T05:00:00.000Z","DRNUMB":18168736,"TIMESTART":929,"TIMEEND":929,"ADDRESS":"200 BEECHER ST","CODE_DEFINED":"LARCENY","Attempt":null,"Arrest":null,"LarcenyCode":"All Other","FID":162,"location":{"type":"Point","coordinates":[-76.141226141,43.060385212],"spatialReference":{"wkid":4326}}}
{"_id":{"$oid":"5bde387e0921aa05cc552ed1"},"DATE":"2018-02-19T05:00:00.000Z","DRNUMB":18168856,"TIMESTART":1055,"TIMEEND":1055,"ADDRESS":"300 HAWLEY AV","CODE_DEFINED":"LARCENY","Attempt":null,"Arrest":null,"LarcenyCode":"All Other","FID":163,"location":{"type":"Point","coordinates":[-76.141902112,43.05332651],"spatialReference":{"wkid":4326}}}
{"_id":{"$oid":"5bde387e0921aa05cc552ed2"},"DATE":"2018-02-20T05:00:00.000Z","DRNUMB":18170996,"TIMESTART":2106,"TIMEEND":2106,"ADDRESS":"200 TOWERS LN","CODE_DEFINED":"LARCENY","Attempt":null,"Arrest":null,"LarcenyCode":"All Other","FID":164,"location":{"type":"Point","coordinates":[-76.146241385,43.037389478],"spatialReference":{"wkid":4326}}}
{"_id":{"$oid":"5bde387e0921aa05cc552ed3"},"DATE":"2018-02-20T05:00:00.000Z","DRNUMB":18900142,"TIMESTART":1650,"TIMEEND":1730,"ADDRESS":"100 MARSHALL ST","CODE_DEFINED":"LARCENY","Attempt":null,"Arrest":null,"LarcenyCode":"All Other","FID":165,"location":{"type":"Point","coordinates":[-76.136570287,43.041547865],"spatialReference":{"wkid":4326}}}
{"_id":{"$oid":"5bde387e0921aa05cc552ed4"},"DATE":"2018-02-21T05:00:00.000Z","DRNUMB":18900145,"TIMESTART":1145,"TIMEEND":1145,"ADDRESS":"800 EMERSON AV","CODE_DEFINED":"LARCENY","Attempt":null,"Arrest":null,"LarcenyCode":"All Other","FID":166,"location":{"type":"Point","coordinates":[-76.189554488,43.05616618],"spatialReference":{"wkid":4326}}}
{"_id":{"$oid":"5bde387e0921aa05cc552ed5"},"DATE":"2018-02-21T05:00:00.000Z","DRNUMB":18900152,"TIMESTART":2245,"TIMEEND":2255,"ADDRESS":"100 MARSHALL ST","CODE_DEFINED":"LARCENY","Attempt":null,"Arrest":null,"LarcenyCode":"All Other","FID":167,"location":{"type":"Point","coordinates":[-76.136570287,43.041547865],"spatialReference":{"wkid":4326}}}
{"_id":{"$oid":"5bde387e0921aa05cc552ed6"},"DATE":"2018-02-22T05:00:00.000Z","DRNUMB":18173007,"TIMESTART":1123,"TIMEEND":1123,"ADDRESS":"300 S  MIDLER AV","CODE_DEFINED":"LARCENY","Attempt":null,"Arrest":null,"LarcenyCode":"All Other","FID":168,"location":{"type":"Point","coordinates":[-76.104729322,43.06399837],"spatialReference":{"wkid":4326}}}
{"_id":{"$oid":"5bde387e0921aa05cc552ed7"},"DATE":"2018-02-22T05:00:00.000Z","DRNUMB":18173200,"TIMESTART":1400,"TIMEEND":1400,"ADDRESS":"700 JAMES ST","CODE_DEFINED":"LARCENY","Attempt":null,"Arrest":null,"LarcenyCode":"All Other","FID":169,"location":{"type":"Point","coordinates":[-76.143066644,43.05497628],"spatialReference":{"wkid":4326}}}
{"_id":{"$oid":"5bde387e0921aa05cc552ed8"},"DATE":"2018-02-22T05:00:00.000Z","DRNUMB":18173230,"TIMESTART":1242,"TIMEEND":1400,"ADDRESS":"100 WESTCOTT ST","CODE_DEFINED":"LARCENY","Attempt":null,"Arrest":null,"LarcenyCode":"All Other","FID":170,"location":{"type":"Point","coordinates":[-76.120057969,43.048762251],"spatialReference":{"wkid":4326}}}
{"_id":{"$oid":"5bde387e0921aa05cc552ed9"},"DATE":"2018-02-22T05:00:00.000Z","DRNUMB":18173726,"TIMESTART":2204,"TIMEEND":2204,"ADDRESS":"1000 WESTCOTT ST","CODE_DEFINED":"LARCENY","Attempt":null,"Arrest":null,"LarcenyCode":"All Other","FID":171,"location":{"type":"Point","coordinates":[-76.118670841,43.033470622],"spatialReference":{"wkid":4326}}}
{"_id":{"$oid":"5bde387e0921aa05cc552eda"},"DATE":"2018-02-22T05:00:00.000Z","DRNUMB":18228381,"TIMESTART":800,"TIMEEND":1500,"ADDRESS":"200 STANDISH DR","CODE_DEFINED":"LARCENY","Attempt":null,"Arrest":null,"LarcenyCode":"All Other","FID":172,"location":{"type":"Point","coordinates":[-76.106026936,43.03722292],"spatialReference":{"wkid":4326}}}
{"_id":{"$oid":"5bde387e0921aa05cc552edb"},"DATE":"2018-02-23T05:00:00.000Z","DRNUMB":18174232,"TIMESTART":1600,"TIMEEND":955,"ADDRESS":"1900 BELLEVUE AV","CODE_DEFINED":"BURGLARY","Attempt":null,"Arrest":null,"LarcenyCode":"All Other","FID":173,"location":{"type":"Point","coordinates":[-76.185355964,43.032548604],"spatialReference":{"wkid":4326}}}
{"_id":{"$oid":"5bde387e0921aa05cc552edc"},"DATE":"2018-02-23T05:00:00.000Z","DRNUMB":18174279,"TIMESTART":1041,"TIMEEND":1041,"ADDRESS":"300 WALNUT PL","CODE_DEFINED":"LARCENY","Attempt":null,"Arrest":null,"LarcenyCode":"All Other","FID":174,"location":{"type":"Point","coordinates":[-76.132930599,43.041392329],"spatialReference":{"wkid":4326}}}
{"_id":{"$oid":"5bde387e0921aa05cc552edd"},"DATE":"2018-02-23T05:00:00.000Z","DRNUMB":18174835,"TIMESTART":1818,"TIMEEND":1818,"ADDRESS":"0 PRESIDENTIAL PLZ","CODE_DEFINED":"LARCENY","Attempt":null,"Arrest":null,"LarcenyCode":"All Other","FID":175,"location":{"type":"Point","coordinates":[-76.144312341,43.044937045],"spatialReference":{"wkid":4326}}}
{"_id":{"$oid":"5bde387e0921aa05cc552ede"},"DATE":"2018-02-23T05:00:00.000Z","DRNUMB":18193374,"TIMESTART":1200,"TIMEEND":1200,"ADDRESS":"800 N  SALINA ST","CODE_DEFINED":"LARCENY","Attempt":null,"Arrest":"Yes","LarcenyCode":"All Other","FID":176,"location":{"type":"Point","coordinates":[-76.154158646,43.061870346],"spatialReference":{"wkid":4326}}}
{"_id":{"$oid":"5bde387e0921aa05cc552edf"},"DATE":"2018-02-24T05:00:00.000Z","DRNUMB":18175986,"TIMESTART":1330,"TIMEEND":1330,"ADDRESS":"1 DESTINY USA DR","CODE_DEFINED":"LARCENY","Attempt":null,"Arrest":null,"LarcenyCode":"All Other","FID":177,"location":{"type":"Point","coordinates":[-76.17424753,43.069913309],"spatialReference":{"wkid":4326}}}
{"_id":{"$oid":"5bde387e0921aa05cc552ee0"},"DATE":"2018-02-24T05:00:00.000Z","DRNUMB":18176419,"TIMESTART":2230,"TIMEEND":2230,"ADDRESS":"1 DESTINY USA DR","CODE_DEFINED":"ROBBERY","Attempt":null,"Arrest":null,"LarcenyCode":"All Other","FID":178,"location":{"type":"Point","coordinates":[-76.17424753,43.069913309],"spatialReference":{"wkid":4326}}}
{"_id":{"$oid":"5bde387e0921aa05cc552ee1"},"DATE":"2018-02-25T05:00:00.000Z","DRNUMB":18176892,"TIMESTART":1011,"TIMEEND":1011,"ADDRESS":"200 MOORE AV","CODE_DEFINED":"BURGLARY","Attempt":null,"Arrest":"Yes","LarcenyCode":"All Other","FID":179,"location":{"type":"Point","coordinates":[-76.137087329,43.025325957],"spatialReference":{"wkid":4326}}}
{"_id":{"$oid":"5bde387e0921aa05cc552ee2"},"DATE":"2018-02-25T05:00:00.000Z","DRNUMB":18177041,"TIMESTART":1309,"TIMEEND":1309,"ADDRESS":"400 S  CLINTON ST","CODE_DEFINED":"ROBBERY","Attempt":null,"Arrest":null,"LarcenyCode":"All Other","FID":180,"location":{"type":"Point","coordinates":[-76.153628566,43.04781],"spatialReference":{"wkid":4326}}}
{"_id":{"$oid":"5bde387e0921aa05cc552ee3"},"DATE":"2018-02-25T05:00:00.000Z","DRNUMB":18177406,"TIMESTART":1924,"TIMEEND":1924,"ADDRESS":"1500 FIRST NORTH ST","CODE_DEFINED":"LARCENY","Attempt":null,"Arrest":null,"LarcenyCode":"All Other","FID":181,"location":{"type":"Point","coordinates":[-76.16040957,43.074019392],"spatialReference":{"wkid":4326}}}
{"_id":{"$oid":"5bde387e0921aa05cc552ee4"},"DATE":"2018-02-25T05:00:00.000Z","DRNUMB":18177434,"TIMESTART":1944,"TIMEEND":1944,"ADDRESS":"700 W  ONONDAGA ST","CODE_DEFINED":"LARCENY","Attempt":null,"Arrest":null,"LarcenyCode":"All Other","FID":182,"location":{"type":"Point","coordinates":[-76.162508913,43.036884144],"spatialReference":{"wkid":4326}}}
{"_id":{"$oid":"5bde387e0921aa05cc552ee5"},"DATE":"2018-02-25T05:00:00.000Z","DRNUMB":18185688,"TIMESTART":1215,"TIMEEND":1300,"ADDRESS":"600 COMSTOCK AV","CODE_DEFINED":"BURGLARY","Attempt":null,"Arrest":null,"LarcenyCode":"All Other","FID":183,"location":{"type":"Point","coordinates":[-76.130242019,43.040412577],"spatialReference":{"wkid":4326}}}
{"_id":{"$oid":"5bde387e0921aa05cc552ee6"},"DATE":"2018-02-26T05:00:00.000Z","DRNUMB":18178100,"TIMESTART":1106,"TIMEEND":1106,"ADDRESS":"300 S  SALINA ST","CODE_DEFINED":"LARCENY","Attempt":null,"Arrest":"Yes","LarcenyCode":"All Other","FID":184,"location":{"type":"Point","coordinates":[-76.152258636,43.048494],"spatialReference":{"wkid":4326}}}
{"_id":{"$oid":"5bde387e0921aa05cc552ee7"},"DATE":"2018-02-26T05:00:00.000Z","DRNUMB":18178656,"TIMESTART":1200,"TIMEEND":1837,"ADDRESS":"200 W  KENNEDY ST","CODE_DEFINED":"LARCENY","Attempt":null,"Arrest":null,"LarcenyCode":"All Other","FID":185,"location":{"type":"Point","coordinates":[-76.150677718,43.029979492],"spatialReference":{"wkid":4326}}}
{"_id":{"$oid":"5bde387e0921aa05cc552ee8"},"DATE":"2018-02-26T05:00:00.000Z","DRNUMB":18184597,"TIMESTART":1200,"TIMEEND":1200,"ADDRESS":"500 S  CLINTON ST","CODE_DEFINED":"LARCENY","Attempt":null,"Arrest":null,"LarcenyCode":"All Other","FID":186,"location":{"type":"Point","coordinates":[-76.15361807,43.046562615],"spatialReference":{"wkid":4326}}}
{"_id":{"$oid":"5bde387e0921aa05cc552ee9"},"DATE":"2018-02-26T05:00:00.000Z","DRNUMB":18212355,"TIMESTART":900,"TIMEEND":900,"ADDRESS":"4700 ONONDAGA BLVD","CODE_DEFINED":"LARCENY","Attempt":null,"Arrest":null,"LarcenyCode":"All Other","FID":187,"location":{"type":"Point","coordinates":[-76.193471131,43.03233387],"spatialReference":{"wkid":4326}}}
{"_id":{"$oid":"5bde387e0921aa05cc552eea"},"DATE":"2018-02-27T05:00:00.000Z","DRNUMB":18179338,"TIMESTART":939,"TIMEEND":939,"ADDRESS":"600 PARK ST","CODE_DEFINED":"ROBBERY","Attempt":null,"Arrest":null,"LarcenyCode":"All Other","FID":188,"location":{"type":"Point","coordinates":[-76.141665702,43.063040482],"spatialReference":{"wkid":4326}}}
{"_id":{"$oid":"5bde387e0921aa05cc552eeb"},"DATE":"2018-02-27T05:00:00.000Z","DRNUMB":18179729,"TIMESTART":1425,"TIMEEND":1425,"ADDRESS":"900 JAMES ST","CODE_DEFINED":"LARCENY","Attempt":null,"Arrest":null,"LarcenyCode":"All Other","FID":189,"location":{"type":"Point","coordinates":[-76.138517078,43.057191693],"spatialReference":{"wkid":4326}}}
{"_id":{"$oid":"5bde387e0921aa05cc552eec"},"DATE":"2018-02-27T05:00:00.000Z","DRNUMB":18183833,"TIMESTART":1800,"TIMEEND":1800,"ADDRESS":"100 WILSON ST","CODE_DEFINED":"LARCENY","Attempt":null,"Arrest":"Yes","LarcenyCode":"All Other","FID":190,"location":{"type":"Point","coordinates":[-76.126065559,43.063280688],"spatialReference":{"wkid":4326}}}
{"_id":{"$oid":"5bde387e0921aa05cc552eed"},"DATE":"2018-02-28T05:00:00.000Z","DRNUMB":18181087,"TIMESTART":1320,"TIMEEND":1320,"ADDRESS":"2900 JAMES ST","CODE_DEFINED":"ROBBERY","Attempt":null,"Arrest":null,"LarcenyCode":"All Other","FID":191,"location":{"type":"Point","coordinates":[-76.106042246,43.068835478],"spatialReference":{"wkid":4326}}}
{"_id":{"$oid":"5bde387e0921aa05cc552eee"},"DATE":"2018-02-28T05:00:00.000Z","DRNUMB":18181224,"TIMESTART":1449,"TIMEEND":1449,"ADDRESS":"1300 DANFORTH ST","CODE_DEFINED":"LARCENY","Attempt":"A","Arrest":null,"LarcenyCode":"All Other","FID":192,"location":{"type":"Point","coordinates":[-76.15528597,43.069512254],"spatialReference":{"wkid":4326}}}
{"_id":{"$oid":"5bde387e0921aa05cc552eef"},"DATE":"2018-02-28T05:00:00.000Z","DRNUMB":18181517,"TIMESTART":1600,"TIMEEND":1815,"ADDRESS":"100 SOLAR ST","CODE_DEFINED":"BURGLARY","Attempt":null,"Arrest":null,"LarcenyCode":"All Other","FID":193,"location":{"type":"Point","coordinates":[-76.157525092,43.056680457],"spatialReference":{"wkid":4326}}}
{"_id":{"$oid":"5bde387e0921aa05cc552ef0"},"DATE":"2018-02-28T05:00:00.000Z","DRNUMB":18181535,"TIMESTART":1828,"TIMEEND":1828,"ADDRESS":"300 WESTCOTT ST","CODE_DEFINED":"LARCENY","Attempt":null,"Arrest":null,"LarcenyCode":"All Other","FID":194,"location":{"type":"Point","coordinates":[-76.119758499,43.045467912],"spatialReference":{"wkid":4326}}}
{"_id":{"$oid":"5bde387e0921aa05cc552ef1"},"DATE":"2018-02-28T05:00:00.000Z","DRNUMB":18181673,"TIMESTART":2028,"TIMEEND":2028,"ADDRESS":"100 W  SENECA TPKE","CODE_DEFINED":"LARCENY","Attempt":null,"Arrest":null,"LarcenyCode":"All Other","FID":195,"location":{"type":"Point","coordinates":[-76.142832504,43.000798278],"spatialReference":{"wkid":4326}}}
{"_id":{"$oid":"5bde387e0921aa05cc552ef2"},"DATE":"2018-02-28T05:00:00.000Z","DRNUMB":18181685,"TIMESTART":2036,"TIMEEND":2036,"ADDRESS":"0 KINGSLEY PL","CODE_DEFINED":"LARCENY","Attempt":null,"Arrest":null,"LarcenyCode":"All Other","FID":196,"location":{"type":"Point","coordinates":[-76.190880155,43.057021902],"spatialReference":{"wkid":4326}}}
{"_id":{"$oid":"5bde387e0921aa05cc552ef3"},"DATE":"2018-02-28T05:00:00.000Z","DRNUMB":18182442,"TIMESTART":1300,"TIMEEND":1700,"ADDRESS":"100 LEA LN","CODE_DEFINED":"LARCENY","Attempt":null,"Arrest":null,"LarcenyCode":"All Other","FID":197,"location":{"type":"Point","coordinates":[-76.118249761,43.072222148],"spatialReference":{"wkid":4326}}}
{"_id":{"$oid":"5bde387e0921aa05cc552ef4"},"DATE":"2018-02-28T05:00:00.000Z","DRNUMB":18187957,"TIMESTART":1400,"TIMEEND":1400,"ADDRESS":"2500 ERIE BLVD E","CODE_DEFINED":"LARCENY","Attempt":null,"Arrest":null,"LarcenyCode":"All Other","FID":198,"location":{"type":"Point","coordinates":[-76.103728162,43.053524656],"spatialReference":{"wkid":4326}}}
{"_id":{"$oid":"5bde387e0921aa05cc552ef5"},"DATE":"2018-03-01T05:00:00.000Z","DRNUMB":18182101,"TIMESTART":517,"TIMEEND":517,"ADDRESS":"800 HIGHLAND ST","CODE_DEFINED":"LARCENY","Attempt":null,"Arrest":"Yes","LarcenyCode":"All Other","FID":199,"location":{"type":"Point","coordinates":[-76.141440355,43.063089927],"spatialReference":{"wkid":4326}}}
{"_id":{"$oid":"5bde387e0921aa05cc552ef6"},"DATE":"2018-03-01T05:00:00.000Z","DRNUMB":18182472,"TIMESTART":1200,"TIMEEND":1200,"ADDRESS":"200 ERIE ST","CODE_DEFINED":"LARCENY","Attempt":null,"Arrest":null,"LarcenyCode":"All Other","FID":200,"location":{"type":"Point","coordinates":[-76.190131413,43.052910469],"spatialReference":{"wkid":4326}}}
{"_id":{"$oid":"5bde387e0921aa05cc552ef7"},"DATE":"2018-04-09T04:00:00.000Z","DRNUMB":18235396,"TIMESTART":2000,"TIMEEND":1600,"ADDRESS":"100 OLIVE ST","CODE_DEFINED":"LARCENY","Attempt":null,"Arrest":null,"LarcenyCode":"All Other","FID":201,"location":{"type":"Point","coordinates":[-76.193485958,43.056696457],"spatialReference":{"wkid":4326}}}
{"_id":{"$oid":"5bde387e0921aa05cc552ef8"},"DATE":"2018-04-09T04:00:00.000Z","DRNUMB":18900275,"TIMESTART":1245,"TIMEEND":245,"ADDRESS":"100 WOLF ST","CODE_DEFINED":"LARCENY","Attempt":null,"Arrest":null,"LarcenyCode":"All Other","FID":202,"location":{"type":"Point","coordinates":[-76.165924203,43.068917725],"spatialReference":{"wkid":4326}}}
{"_id":{"$oid":"5bde387e0921aa05cc552ef9"},"DATE":"2018-04-10T04:00:00.000Z","DRNUMB":18236856,"TIMESTART":1300,"TIMEEND":1530,"ADDRESS":"200 COMSTOCK AV","CODE_DEFINED":"LARCENY","Attempt":null,"Arrest":null,"LarcenyCode":"All Other","FID":203,"location":{"type":"Point","coordinates":[-76.130670329,43.045126512],"spatialReference":{"wkid":4326}}}
{"_id":{"$oid":"5bde387e0921aa05cc552efa"},"DATE":"2018-04-11T04:00:00.000Z","DRNUMB":18239012,"TIMESTART":1300,"TIMEEND":1300,"ADDRESS":"500 JAMES ST","CODE_DEFINED":"LARCENY","Attempt":null,"Arrest":null,"LarcenyCode":"All Other","FID":204,"location":{"type":"Point","coordinates":[-76.145448543,43.053851055],"spatialReference":{"wkid":4326}}}
{"_id":{"$oid":"5bde387e0921aa05cc552efb"},"DATE":"2018-04-12T04:00:00.000Z","DRNUMB":18238888,"TIMESTART":758,"TIMEEND":758,"ADDRESS":"100 SMITH LN","CODE_DEFINED":"LARCENY","Attempt":null,"Arrest":"Yes","LarcenyCode":"All Other","FID":205,"location":{"type":"Point","coordinates":[-76.136902853,43.022548338],"spatialReference":{"wkid":4326}}}
{"_id":{"$oid":"5bde387e0921aa05cc552efc"},"DATE":"2018-04-12T04:00:00.000Z","DRNUMB":18244958,"TIMESTART":1200,"TIMEEND":1200,"ADDRESS":"500 S  CLINTON ST","CODE_DEFINED":"BURGLARY","Attempt":null,"Arrest":null,"LarcenyCode":"All Other","FID":206,"location":{"type":"Point","coordinates":[-76.15361807,43.046562615],"spatialReference":{"wkid":4326}}}
{"_id":{"$oid":"5bde387e0921aa05cc552efd"},"DATE":"2018-04-12T04:00:00.000Z","DRNUMB":18900287,"TIMESTART":2200,"TIMEEND":2200,"ADDRESS":"600 PARK ST","CODE_DEFINED":"LARCENY","Attempt":null,"Arrest":null,"LarcenyCode":"All Other","FID":207,"location":{"type":"Point","coordinates":[-76.141665702,43.063040482],"spatialReference":{"wkid":4326}}}
{"_id":{"$oid":"5bde387e0921aa05cc552efe"},"DATE":"2018-04-14T04:00:00.000Z","DRNUMB":18241969,"TIMESTART":433,"TIMEEND":433,"ADDRESS":"700 W  ONONDAGA ST","CODE_DEFINED":"LARCENY","Attempt":null,"Arrest":null,"LarcenyCode":"All Other","FID":208,"location":{"type":"Point","coordinates":[-76.162508913,43.036884144],"spatialReference":{"wkid":4326}}}
{"_id":{"$oid":"5bde387e0921aa05cc552eff"},"DATE":"2018-04-14T04:00:00.000Z","DRNUMB":18242325,"TIMESTART":1230,"TIMEEND":1240,"ADDRESS":"1000 N  SALINA ST","CODE_DEFINED":"ROBBERY","Attempt":null,"Arrest":"Yes","LarcenyCode":"All Other","FID":209,"location":{"type":"Point","coordinates":[-76.156101772,43.064295453],"spatialReference":{"wkid":4326}}}
{"_id":{"$oid":"5bde387e0921aa05cc552f00"},"DATE":"2018-04-14T04:00:00.000Z","DRNUMB":18242897,"TIMESTART":1730,"TIMEEND":1815,"ADDRESS":"0 PRESIDENTIAL PLZ","CODE_DEFINED":"LARCENY","Attempt":null,"Arrest":"Yes","LarcenyCode":"All Other","FID":210,"location":{"type":"Point","coordinates":[-76.144312341,43.044937045],"spatialReference":{"wkid":4326}}}
{"_id":{"$oid":"5bde387e0921aa05cc552f01"},"DATE":"2018-04-14T04:00:00.000Z","DRNUMB":18243150,"TIMESTART":655,"TIMEEND":2335,"ADDRESS":"700 E  BRIGHTON AV","CODE_DEFINED":"LARCENY","Attempt":null,"Arrest":null,"LarcenyCode":"All Other","FID":211,"location":{"type":"Point","coordinates":[-76.131472991,43.005918308],"spatialReference":{"wkid":4326}}}
{"_id":{"$oid":"5bde387e0921aa05cc552f02"},"DATE":"2018-04-14T04:00:00.000Z","DRNUMB":18900296,"TIMESTART":1640,"TIMEEND":1640,"ADDRESS":"100 LAFAYETTE RD","CODE_DEFINED":"LARCENY","Attempt":null,"Arrest":null,"LarcenyCode":"All Other","FID":212,"location":{"type":"Point","coordinates":[-76.129323768,43.001299966],"spatialReference":{"wkid":4326}}}
{"_id":{"$oid":"5bde387e0921aa05cc552f03"},"DATE":"2018-04-14T04:00:00.000Z","DRNUMB":18900307,"TIMESTART":2215,"TIMEEND":1215,"ADDRESS":"400 WINTON ST","CODE_DEFINED":"LARCENY","Attempt":null,"Arrest":null,"LarcenyCode":"All Other","FID":213,"location":{"type":"Point","coordinates":[-76.123385534,43.055709154],"spatialReference":{"wkid":4326}}}
{"_id":{"$oid":"5bde387e0921aa05cc552f04"},"DATE":"2018-04-15T04:00:00.000Z","DRNUMB":18243601,"TIMESTART":200,"TIMEEND":200,"ADDRESS":"900 PARK AV","CODE_DEFINED":"LARCENY","Attempt":null,"Arrest":null,"LarcenyCode":"All Other","FID":214,"location":{"type":"Point","coordinates":[-76.176539633,43.052273497],"spatialReference":{"wkid":4326}}}
{"_id":{"$oid":"5bde387e0921aa05cc552f05"},"DATE":"2018-04-15T04:00:00.000Z","DRNUMB":18243632,"TIMESTART":1230,"TIMEEND":1230,"ADDRESS":"1100 CUMBERLAND AV","CODE_DEFINED":"BURGLARY","Attempt":null,"Arrest":null,"LarcenyCode":"All Other","FID":215,"location":{"type":"Point","coordinates":[-76.112380213,43.025514203],"spatialReference":{"wkid":4326}}}
{"_id":{"$oid":"5bde387e0921aa05cc552f06"},"DATE":"2018-04-15T04:00:00.000Z","DRNUMB":18243985,"TIMESTART":1827,"TIMEEND":1827,"ADDRESS":"200 WARNER AV","CODE_DEFINED":"ROBBERY","Attempt":null,"Arrest":null,"LarcenyCode":"All Other","FID":216,"location":{"type":"Point","coordinates":[-76.14561259,43.022404445],"spatialReference":{"wkid":4326}}}
{"_id":{"$oid":"5bde387e0921aa05cc552f07"},"DATE":"2018-04-15T04:00:00.000Z","DRNUMB":18244035,"TIMESTART":1917,"TIMEEND":1917,"ADDRESS":"500 S  STATE ST","CODE_DEFINED":"LARCENY","Attempt":null,"Arrest":null,"LarcenyCode":"All Other","FID":217,"location":{"type":"Point","coordinates":[-76.147533763,43.046989602],"spatialReference":{"wkid":4326}}}
{"_id":{"$oid":"5bde387e0921aa05cc552f08"},"DATE":"2018-04-15T04:00:00.000Z","DRNUMB":18900291,"TIMESTART":2030,"TIMEEND":1100,"ADDRESS":"1000 BELLEVUE AV","CODE_DEFINED":"LARCENY","Attempt":null,"Arrest":null,"LarcenyCode":"All Other","FID":218,"location":{"type":"Point","coordinates":[-76.170204115,43.033052482],"spatialReference":{"wkid":4326}}}
{"_id":{"$oid":"5bde387e0921aa05cc552f09"},"DATE":"2018-04-16T04:00:00.000Z","DRNUMB":18244772,"TIMESTART":1050,"TIMEEND":1050,"ADDRESS":"700 HAMILTON ST","CODE_DEFINED":"BURGLARY","Attempt":null,"Arrest":null,"LarcenyCode":"All Other","FID":219,"location":{"type":"Point","coordinates":[-76.192048262,43.048483325],"spatialReference":{"wkid":4326}}}
{"_id":{"$oid":"5bde387e0921aa05cc552f0a"},"DATE":"2018-04-16T04:00:00.000Z","DRNUMB":18245032,"TIMESTART":1403,"TIMEEND":1403,"ADDRESS":"300 E  WILLOW ST","CODE_DEFINED":"LARCENY","Attempt":null,"Arrest":"Yes","LarcenyCode":"All Other","FID":220,"location":{"type":"Point","coordinates":[-76.14975382,43.052867745],"spatialReference":{"wkid":4326}}}
{"_id":{"$oid":"5bde387e0921aa05cc552f0b"},"DATE":"2018-04-16T04:00:00.000Z","DRNUMB":18245226,"TIMESTART":1330,"TIMEEND":1600,"ADDRESS":"1300 BURNET AV","CODE_DEFINED":"LARCENY","Attempt":null,"Arrest":null,"LarcenyCode":"All Other","FID":221,"location":{"type":"Point","coordinates":[-76.121848189,43.054236769],"spatialReference":{"wkid":4326}}}
{"_id":{"$oid":"5bde387e0921aa05cc552f0c"},"DATE":"2018-04-16T04:00:00.000Z","DRNUMB":18245403,"TIMESTART":1933,"TIMEEND":1933,"ADDRESS":"100 HOEFLER ST","CODE_DEFINED":"LARCENY","Attempt":null,"Arrest":null,"LarcenyCode":"All Other","FID":222,"location":{"type":"Point","coordinates":[-76.179914355,43.038532803],"spatialReference":{"wkid":4326}}}
{"_id":{"$oid":"5bde387e0921aa05cc552f0d"},"DATE":"2018-04-16T04:00:00.000Z","DRNUMB":18250187,"TIMESTART":0,"TIMEEND":0,"ADDRESS":"200 TEALL AV","CODE_DEFINED":"LARCENY","Attempt":null,"Arrest":null,"LarcenyCode":"All Other","FID":223,"location":{"type":"Point","coordinates":[-76.121658622,43.050778175],"spatialReference":{"wkid":4326}}}
{"_id":{"$oid":"5bde387e0921aa05cc552f0e"},"DATE":"2018-04-16T04:00:00.000Z","DRNUMB":18285093,"TIMESTART":0,"TIMEEND":0,"ADDRESS":"100 HOPPER RD","CODE_DEFINED":"LARCENY","Attempt":null,"Arrest":null,"LarcenyCode":"All Other","FID":224,"location":{"type":"Point","coordinates":[-76.158857324,43.003002143],"spatialReference":{"wkid":4326}}}
{"_id":{"$oid":"5bde387e0921aa05cc552f0f"},"DATE":"2018-04-16T04:00:00.000Z","DRNUMB":18900298,"TIMESTART":1500,"TIMEEND":1500,"ADDRESS":"800 E  BRIGHTON AV","CODE_DEFINED":"LARCENY","Attempt":null,"Arrest":null,"LarcenyCode":"All Other","FID":225,"location":{"type":"Point","coordinates":[-76.131385648,43.005708685],"spatialReference":{"wkid":4326}}}
{"_id":{"$oid":"5bde387e0921aa05cc552f10"},"DATE":"2018-04-17T04:00:00.000Z","DRNUMB":18246588,"TIMESTART":1610,"TIMEEND":1610,"ADDRESS":"100 RONEY LN","CODE_DEFINED":"LARCENY","Attempt":null,"Arrest":null,"LarcenyCode":"All Other","FID":226,"location":{"type":"Point","coordinates":[-76.13596921,43.021781067],"spatialReference":{"wkid":4326}}}
{"_id":{"$oid":"5bde387e0921aa05cc552f11"},"DATE":"2018-04-17T04:00:00.000Z","DRNUMB":18246877,"TIMESTART":2030,"TIMEEND":2038,"ADDRESS":"2200 JAMES ST","CODE_DEFINED":"ROBBERY","Attempt":null,"Arrest":null,"LarcenyCode":"All Other","FID":227,"location":{"type":"Point","coordinates":[-76.116847108,43.067848919],"spatialReference":{"wkid":4326}}}
{"_id":{"$oid":"5bde387e0921aa05cc552f12"},"DATE":"2018-04-17T04:00:00.000Z","DRNUMB":18254736,"TIMESTART":1758,"TIMEEND":1758,"ADDRESS":"1 DESTINY USA DR","CODE_DEFINED":"LARCENY","Attempt":null,"Arrest":null,"LarcenyCode":"All Other","FID":228,"location":{"type":"Point","coordinates":[-76.17424753,43.069913309],"spatialReference":{"wkid":4326}}}
{"_id":{"$oid":"5bde387e0921aa05cc552f13"},"DATE":"2018-04-18T04:00:00.000Z","DRNUMB":18247992,"TIMESTART":1725,"TIMEEND":1725,"ADDRESS":"100 CHATHAM RD","CODE_DEFINED":"LARCENY","Attempt":null,"Arrest":null,"LarcenyCode":"All Other","FID":229,"location":{"type":"Point","coordinates":[-76.127024062,43.066164517],"spatialReference":{"wkid":4326}}}
{"_id":{"$oid":"5bde387e0921aa05cc552f14"},"DATE":"2018-04-18T04:00:00.000Z","DRNUMB":18248143,"TIMESTART":1919,"TIMEEND":1919,"ADDRESS":"200 HILLSDALE AV","CODE_DEFINED":"LARCENY","Attempt":null,"Arrest":null,"LarcenyCode":"All Other","FID":230,"location":{"type":"Point","coordinates":[-76.108617322,43.066096512],"spatialReference":{"wkid":4326}}}
{"_id":{"$oid":"5bde387e0921aa05cc552f15"},"DATE":"2018-04-18T04:00:00.000Z","DRNUMB":18264385,"TIMESTART":1500,"TIMEEND":1500,"ADDRESS":"700 BUTTERNUT ST","CODE_DEFINED":"LARCENY","Attempt":null,"Arrest":null,"LarcenyCode":"All Other","FID":231,"location":{"type":"Point","coordinates":[-76.145751036,43.060462497],"spatialReference":{"wkid":4326}}}
{"_id":{"$oid":"5bde387e0921aa05cc552f16"},"DATE":"2018-04-19T04:00:00.000Z","DRNUMB":18248711,"TIMESTART":840,"TIMEEND":840,"ADDRESS":"400 W  ONONDAGA ST","CODE_DEFINED":"LARCENY","Attempt":null,"Arrest":null,"LarcenyCode":"All Other","FID":232,"location":{"type":"Point","coordinates":[-76.157442124,43.040579122],"spatialReference":{"wkid":4326}}}
{"_id":{"$oid":"5bde387e0921aa05cc552f17"},"DATE":"2018-04-19T04:00:00.000Z","DRNUMB":18249555,"TIMESTART":1916,"TIMEEND":1916,"ADDRESS":"2100 ERIE BLVD E","CODE_DEFINED":"LARCENY","Attempt":null,"Arrest":null,"LarcenyCode":"All Other","FID":233,"location":{"type":"Point","coordinates":[-76.112475955,43.051786302],"spatialReference":{"wkid":4326}}}
{"_id":{"$oid":"5bde387e0921aa05cc552f18"},"DATE":"2018-04-19T04:00:00.000Z","DRNUMB":18249626,"TIMESTART":2033,"TIMEEND":2033,"ADDRESS":"700 FIRST NORTH ST","CODE_DEFINED":"LARCENY","Attempt":null,"Arrest":"Yes","LarcenyCode":"All Other","FID":234,"location":{"type":"Point","coordinates":[-76.149439522,43.069623343],"spatialReference":{"wkid":4326}}}
{"_id":{"$oid":"5bde387e0921aa05cc552f19"},"DATE":"2018-04-19T04:00:00.000Z","DRNUMB":18249714,"TIMESTART":100,"TIMEEND":1500,"ADDRESS":"1600 W  GENESEE ST","CODE_DEFINED":"BURGLARY","Attempt":null,"Arrest":null,"LarcenyCode":"All Other","FID":235,"location":{"type":"Point","coordinates":[-76.185950579,43.052365486],"spatialReference":{"wkid":4326}}}
{"_id":{"$oid":"5bde387e0921aa05cc552f1a"},"DATE":"2018-04-19T04:00:00.000Z","DRNUMB":18249794,"TIMESTART":2340,"TIMEEND":2340,"ADDRESS":"100 CARLISLE ST","CODE_DEFINED":"LARCENY","Attempt":null,"Arrest":null,"LarcenyCode":"All Other","FID":236,"location":{"type":"Point","coordinates":[-76.152976111,43.06800184],"spatialReference":{"wkid":4326}}}
{"_id":{"$oid":"5bde387e0921aa05cc552f1b"},"DATE":"2018-04-19T04:00:00.000Z","DRNUMB":18900310,"TIMESTART":2343,"TIMEEND":200,"ADDRESS":"700 S  CROUSE AV","CODE_DEFINED":"LARCENY","Attempt":null,"Arrest":null,"LarcenyCode":"All Other","FID":237,"location":{"type":"Point","coordinates":[-76.13666904,43.042537341],"spatialReference":{"wkid":4326}}}
{"_id":{"$oid":"5bde387e0921aa05cc552f1c"},"DATE":"2018-04-20T04:00:00.000Z","DRNUMB":18249922,"TIMESTART":151,"TIMEEND":151,"ADDRESS":"400 WOLF ST","CODE_DEFINED":"LARCENY","Attempt":null,"Arrest":null,"LarcenyCode":"All Other","FID":238,"location":{"type":"Point","coordinates":[-76.163384757,43.072309331],"spatialReference":{"wkid":4326}}}
{"_id":{"$oid":"5bde387e0921aa05cc552f1d"},"DATE":"2018-04-20T04:00:00.000Z","DRNUMB":18250910,"TIMESTART":1830,"TIMEEND":1830,"ADDRESS":"300 MONTGOMERY ST","CODE_DEFINED":"LARCENY","Attempt":null,"Arrest":null,"LarcenyCode":"All Other","FID":239,"location":{"type":"Point","coordinates":[-76.149367584,43.048242168],"spatialReference":{"wkid":4326}}}
{"_id":{"$oid":"5bde387e0921aa05cc552f1e"},"DATE":"2018-04-20T04:00:00.000Z","DRNUMB":18254380,"TIMESTART":1645,"TIMEEND":1645,"ADDRESS":"100 MARSHALL ST","CODE_DEFINED":"LARCENY","Attempt":null,"Arrest":null,"LarcenyCode":"All Other","FID":240,"location":{"type":"Point","coordinates":[-76.136570287,43.041547865],"spatialReference":{"wkid":4326}}}
{"_id":{"$oid":"5bde387e0921aa05cc552f1f"},"DATE":"2018-04-21T04:00:00.000Z","DRNUMB":18251720,"TIMESTART":130,"TIMEEND":930,"ADDRESS":"100 LILAC ST","CODE_DEFINED":"BURGLARY","Attempt":null,"Arrest":null,"LarcenyCode":"All Other","FID":241,"location":{"type":"Point","coordinates":[-76.150463062,43.063188145],"spatialReference":{"wkid":4326}}}
{"_id":{"$oid":"5bde387e0921aa05cc552f20"},"DATE":"2018-04-21T04:00:00.000Z","DRNUMB":18252270,"TIMESTART":1838,"TIMEEND":1838,"ADDRESS":"300 N  MIDLER AV","CODE_DEFINED":"ROBBERY","Attempt":null,"Arrest":null,"LarcenyCode":"All Other","FID":242,"location":{"type":"Point","coordinates":[-76.105603937,43.073918864],"spatialReference":{"wkid":4326}}}
{"_id":{"$oid":"5bde387e0921aa05cc552f21"},"DATE":"2018-04-21T04:00:00.000Z","DRNUMB":18252591,"TIMESTART":2245,"TIMEEND":2245,"ADDRESS":"200 GRIFFITHS ST","CODE_DEFINED":"ROBBERY","Attempt":null,"Arrest":null,"LarcenyCode":"All Other","FID":243,"location":{"type":"Point","coordinates":[-76.145111671,43.06896552],"spatialReference":{"wkid":4326}}}
{"_id":{"$oid":"5bde387e0921aa05cc552f22"},"DATE":"2018-04-21T04:00:00.000Z","DRNUMB":18254838,"TIMESTART":1700,"TIMEEND":1700,"ADDRESS":"100 MARK AV","CODE_DEFINED":"LARCENY","Attempt":null,"Arrest":null,"LarcenyCode":"All Other","FID":244,"location":{"type":"Point","coordinates":[-76.150039802,43.025934186],"spatialReference":{"wkid":4326}}}
{"_id":{"$oid":"5bde387e0921aa05cc552f23"},"DATE":"2018-04-22T04:00:00.000Z","DRNUMB":18253171,"TIMESTART":1800,"TIMEEND":815,"ADDRESS":"1200 MILTON AV","CODE_DEFINED":"BURGLARY","Attempt":null,"Arrest":null,"LarcenyCode":"All Other","FID":245,"location":{"type":"Point","coordinates":[-76.197342573,43.059056961],"spatialReference":{"wkid":4326}}}
{"_id":{"$oid":"5bde387e0921aa05cc552f24"},"DATE":"2018-04-22T04:00:00.000Z","DRNUMB":18253379,"TIMESTART":200,"TIMEEND":200,"ADDRESS":"300 VALLEY DR","CODE_DEFINED":"LARCENY","Attempt":null,"Arrest":null,"LarcenyCode":"All Other","FID":246,"location":{"type":"Point","coordinates":[-76.160002833,43.016017768],"spatialReference":{"wkid":4326}}}
{"_id":{"$oid":"5bde387e0921aa05cc552f25"},"DATE":"2018-04-22T04:00:00.000Z","DRNUMB":18253508,"TIMESTART":1637,"TIMEEND":1637,"ADDRESS":"2400 S  SALINA ST","CODE_DEFINED":"LARCENY","Attempt":null,"Arrest":null,"LarcenyCode":"All Other","FID":247,"location":{"type":"Point","coordinates":[-76.144545035,43.023861985],"spatialReference":{"wkid":4326}}}
{"_id":{"$oid":"5bde387e0921aa05cc552f26"},"DATE":"2018-04-22T04:00:00.000Z","DRNUMB":18253761,"TIMESTART":2056,"TIMEEND":2056,"ADDRESS":"200 N  STATE ST","CODE_DEFINED":"LARCENY","Attempt":null,"Arrest":null,"LarcenyCode":"All Other","FID":248,"location":{"type":"Point","coordinates":[-76.148608194,43.052753964],"spatialReference":{"wkid":4326}}}
{"_id":{"$oid":"5bde387e0921aa05cc552f27"},"DATE":"2018-04-23T04:00:00.000Z","DRNUMB":18254181,"TIMESTART":817,"TIMEEND":817,"ADDRESS":"1000 N  TOWNSEND ST","CODE_DEFINED":"LARCENY","Attempt":null,"Arrest":null,"LarcenyCode":"All Other","FID":249,"location":{"type":"Point","coordinates":[-76.15187057,43.061156221],"spatialReference":{"wkid":4326}}}
{"_id":{"$oid":"5bde387e0921aa05cc552f28"},"DATE":"2018-04-23T04:00:00.000Z","DRNUMB":18255317,"TIMESTART":2313,"TIMEEND":2313,"ADDRESS":"100 E  OSTRANDER AV","CODE_DEFINED":"LARCENY","Attempt":null,"Arrest":null,"LarcenyCode":"All Other","FID":250,"location":{"type":"Point","coordinates":[-76.14078322,43.01422854],"spatialReference":{"wkid":4326}}}
{"_id":{"$oid":"5bde387e0921aa05cc552f29"},"DATE":"2018-04-23T04:00:00.000Z","DRNUMB":18260337,"TIMESTART":1600,"TIMEEND":1600,"ADDRESS":"900 JAMES ST","CODE_DEFINED":"LARCENY","Attempt":null,"Arrest":null,"LarcenyCode":"All Other","FID":251,"location":{"type":"Point","coordinates":[-76.138517078,43.057191693],"spatialReference":{"wkid":4326}}}
{"_id":{"$oid":"5bde387e0921aa05cc552f2a"},"DATE":"2018-04-24T04:00:00.000Z","DRNUMB":18255864,"TIMESTART":1119,"TIMEEND":1119,"ADDRESS":"400 WILKINSON ST","CODE_DEFINED":"LARCENY","Attempt":null,"Arrest":null,"LarcenyCode":"All Other","FID":252,"location":{"type":"Point","coordinates":[-76.166410636,43.050965489],"spatialReference":{"wkid":4326}}}
{"_id":{"$oid":"5bde387e0921aa05cc552f2b"},"DATE":"2018-04-24T04:00:00.000Z","DRNUMB":18256134,"TIMESTART":1400,"TIMEEND":1435,"ADDRESS":"2900 ERIE BLVD E","CODE_DEFINED":"LARCENY","Attempt":null,"Arrest":null,"LarcenyCode":"All Other","FID":253,"location":{"type":"Point","coordinates":[-76.090670602,43.054986532],"spatialReference":{"wkid":4326}}}
{"_id":{"$oid":"5bde387e0921aa05cc552f2c"},"DATE":"2018-04-24T04:00:00.000Z","DRNUMB":18256353,"TIMESTART":1719,"TIMEEND":1719,"ADDRESS":"700 E  ADAMS ST","CODE_DEFINED":"LARCENY","Attempt":null,"Arrest":null,"LarcenyCode":"All Other","FID":254,"location":{"type":"Point","coordinates":[-76.141893135,43.042685554],"spatialReference":{"wkid":4326}}}
{"_id":{"$oid":"5bde387e0921aa05cc552f2d"},"DATE":"2018-04-24T04:00:00.000Z","DRNUMB":18256503,"TIMESTART":1900,"TIMEEND":1900,"ADDRESS":"100 HOOD AV","CODE_DEFINED":"LARCENY","Attempt":null,"Arrest":null,"LarcenyCode":"All Other","FID":255,"location":{"type":"Point","coordinates":[-76.142490226,43.073367226],"spatialReference":{"wkid":4326}}}
{"_id":{"$oid":"5bde387e0921aa05cc552f2e"},"DATE":"2018-04-24T04:00:00.000Z","DRNUMB":18256608,"TIMESTART":1800,"TIMEEND":1915,"ADDRESS":"1000 COL EILEEN COLLINS BLVD","CODE_DEFINED":"LARCENY","Attempt":null,"Arrest":null,"LarcenyCode":"All Other","FID":256,"location":{"type":"Point","coordinates":[-76.111996656,43.11296774],"spatialReference":{"wkid":4326}}}
{"_id":{"$oid":"5bde387e0921aa05cc552f2f"},"DATE":"2018-04-24T04:00:00.000Z","DRNUMB":18256681,"TIMESTART":2129,"TIMEEND":2129,"ADDRESS":"0 COSTELLO CT","CODE_DEFINED":"ROBBERY","Attempt":null,"Arrest":"Yes","LarcenyCode":"All Other","FID":257,"location":{"type":"Point","coordinates":[-76.160826,43.044273],"spatialReference":{"wkid":4326}}}
{"_id":{"$oid":"5bde387e0921aa05cc552f30"},"DATE":"2018-04-24T04:00:00.000Z","DRNUMB":18268256,"TIMESTART":1600,"TIMEEND":700,"ADDRESS":"600 CUMBERLAND AV","CODE_DEFINED":"BURGLARY","Attempt":null,"Arrest":null,"LarcenyCode":"All Other","FID":258,"location":{"type":"Point","coordinates":[-76.112650464,43.034687518],"spatialReference":{"wkid":4326}}}
{"_id":{"$oid":"5bde387e0921aa05cc552f31"},"DATE":"2018-04-25T04:00:00.000Z","DRNUMB":18257049,"TIMESTART":739,"TIMEEND":739,"ADDRESS":"100 S  SALINA ST","CODE_DEFINED":"LARCENY","Attempt":null,"Arrest":null,"LarcenyCode":"All Other","FID":259,"location":{"type":"Point","coordinates":[-76.152261309,43.050755865],"spatialReference":{"wkid":4326}}}
{"_id":{"$oid":"5bde387e0921aa05cc552f32"},"DATE":"2018-04-26T04:00:00.000Z","DRNUMB":18258101,"TIMESTART":1,"TIMEEND":1,"ADDRESS":"1000 COL EILEEN COLLINS BLVD","CODE_DEFINED":"LARCENY","Attempt":null,"Arrest":null,"LarcenyCode":"All Other","FID":260,"location":{"type":"Point","coordinates":[-76.111996656,43.11296774],"spatialReference":{"wkid":4326}}}
{"_id":{"$oid":"5bde387e0921aa05cc552f33"},"DATE":"2018-04-26T04:00:00.000Z","DRNUMB":18258355,"TIMESTART":836,"TIMEEND":836,"ADDRESS":"600 S  SALINA ST","CODE_DEFINED":"LARCENY","Attempt":null,"Arrest":null,"LarcenyCode":"All Other","FID":261,"location":{"type":"Point","coordinates":[-76.151494411,43.042514815],"spatialReference":{"wkid":4326}}}
{"_id":{"$oid":"5bde387e0921aa05cc552f34"},"DATE":"2018-04-26T04:00:00.000Z","DRNUMB":18259173,"TIMESTART":1947,"TIMEEND":1947,"ADDRESS":"200 PATTISON ST","CODE_DEFINED":"LARCENY","Attempt":"A","Arrest":null,"LarcenyCode":"All Other","FID":262,"location":{"type":"Point","coordinates":[-76.127072862,43.058939503],"spatialReference":{"wkid":4326}}}
{"_id":{"$oid":"5bde387e0921aa05cc552f35"},"DATE":"2018-04-26T04:00:00.000Z","DRNUMB":18259932,"TIMESTART":2030,"TIMEEND":2045,"ADDRESS":"1 DESTINY USA DR","CODE_DEFINED":"LARCENY","Attempt":null,"Arrest":null,"LarcenyCode":"All Other","FID":263,"location":{"type":"Point","coordinates":[-76.17424753,43.069913309],"spatialReference":{"wkid":4326}}}
{"_id":{"$oid":"5bde387e0921aa05cc552f36"},"DATE":"2018-04-26T04:00:00.000Z","DRNUMB":18900326,"TIMESTART":2330,"TIMEEND":1250,"ADDRESS":"100 POND ST","CODE_DEFINED":"LARCENY","Attempt":null,"Arrest":null,"LarcenyCode":"All Other","FID":264,"location":{"type":"Point","coordinates":[-76.153323396,43.063440517],"spatialReference":{"wkid":4326}}}
{"_id":{"$oid":"5bde387e0921aa05cc552f37"},"DATE":"2018-04-27T04:00:00.000Z","DRNUMB":18900337,"TIMESTART":1400,"TIMEEND":1405,"ADDRESS":"100 OSTROM AVE","CODE_DEFINED":"LARCENY","Attempt":null,"Arrest":null,"LarcenyCode":"All Other","FID":265,"location":{"type":"Point","coordinates":[-76.129110366,43.046106789],"spatialReference":{"wkid":4326}}}
{"_id":{"$oid":"5bde387e0921aa05cc552f38"},"DATE":"2018-04-28T04:00:00.000Z","DRNUMB":18261600,"TIMESTART":1519,"TIMEEND":1519,"ADDRESS":"700 LODI ST","CODE_DEFINED":"LARCENY","Attempt":null,"Arrest":null,"LarcenyCode":"All Other","FID":266,"location":{"type":"Point","coordinates":[-76.138966323,43.055620636],"spatialReference":{"wkid":4326}}}
{"_id":{"$oid":"5bde387e0921aa05cc552f39"},"DATE":"2018-04-30T04:00:00.000Z","DRNUMB":18263321,"TIMESTART":45,"TIMEEND":45,"ADDRESS":"100 OXFORD ST","CODE_DEFINED":"LARCENY","Attempt":null,"Arrest":null,"LarcenyCode":"All Other","FID":267,"location":{"type":"Point","coordinates":[-76.15205418,43.034089615],"spatialReference":{"wkid":4326}}}
{"_id":{"$oid":"5bde387e0921aa05cc552f3a"},"DATE":"2018-04-30T04:00:00.000Z","DRNUMB":18263738,"TIMESTART":1041,"TIMEEND":1041,"ADDRESS":"100 GAME RD","CODE_DEFINED":"LARCENY","Attempt":null,"Arrest":null,"LarcenyCode":"All Other","FID":268,"location":{"type":"Point","coordinates":[-76.131280276,43.01126878],"spatialReference":{"wkid":4326}}}
{"_id":{"$oid":"5bde387e0921aa05cc552f3b"},"DATE":"2018-05-01T04:00:00.000Z","DRNUMB":18264840,"TIMESTART":136,"TIMEEND":136,"ADDRESS":"200 BEECHER ST","CODE_DEFINED":"ROBBERY","Attempt":null,"Arrest":null,"LarcenyCode":"All Other","FID":269,"location":{"type":"Point","coordinates":[-76.141226141,43.060385212],"spatialReference":{"wkid":4326}}}
{"_id":{"$oid":"5bde387e0921aa05cc552f3c"},"DATE":"2018-05-01T04:00:00.000Z","DRNUMB":18264840,"TIMESTART":136,"TIMEEND":136,"ADDRESS":"200 BEECHER ST","CODE_DEFINED":"ROBBERY","Attempt":"A","Arrest":null,"LarcenyCode":"All Other","FID":270,"location":{"type":"Point","coordinates":[-76.141226141,43.060385212],"spatialReference":{"wkid":4326}}}
{"_id":{"$oid":"5bde387e0921aa05cc552f3d"},"DATE":"2018-05-01T04:00:00.000Z","DRNUMB":18265308,"TIMESTART":1144,"TIMEEND":1144,"ADDRESS":"100 GIFFORD ST","CODE_DEFINED":"LARCENY","Attempt":null,"Arrest":null,"LarcenyCode":"All Other","FID":271,"location":{"type":"Point","coordinates":[-76.153714664,43.043755658],"spatialReference":{"wkid":4326}}}
{"_id":{"$oid":"5bde387e0921aa05cc552f3e"},"DATE":"2018-05-01T04:00:00.000Z","DRNUMB":18265456,"TIMESTART":1433,"TIMEEND":1433,"ADDRESS":"0 WILL CT","CODE_DEFINED":"LARCENY","Attempt":null,"Arrest":null,"LarcenyCode":"All Other","FID":272,"location":{"type":"Point","coordinates":[-76.1600475,43.044462],"spatialReference":{"wkid":4326}}}
{"_id":{"$oid":"5bde387e0921aa05cc552f3f"},"DATE":"2018-05-01T04:00:00.000Z","DRNUMB":18265778,"TIMESTART":1759,"TIMEEND":1759,"ADDRESS":"100 TOWNSEND PL","CODE_DEFINED":"LARCENY","Attempt":null,"Arrest":null,"LarcenyCode":"All Other","FID":273,"location":{"type":"Point","coordinates":[-76.149371321,43.058950516],"spatialReference":{"wkid":4326}}}
{"_id":{"$oid":"5bde387e0921aa05cc552f40"},"DATE":"2018-05-01T04:00:00.000Z","DRNUMB":18265809,"TIMESTART":1827,"TIMEEND":1827,"ADDRESS":"300 CLARENDON ST","CODE_DEFINED":"LARCENY","Attempt":null,"Arrest":null,"LarcenyCode":"All Other","FID":274,"location":{"type":"Point","coordinates":[-76.125730052,43.038060363],"spatialReference":{"wkid":4326}}}
{"_id":{"$oid":"5bde387e0921aa05cc552f41"},"DATE":"2018-05-02T04:00:00.000Z","DRNUMB":18266682,"TIMESTART":1058,"TIMEEND":1058,"ADDRESS":"500 S  STATE ST","CODE_DEFINED":"LARCENY","Attempt":null,"Arrest":null,"LarcenyCode":"All Other","FID":275,"location":{"type":"Point","coordinates":[-76.147533763,43.046989602],"spatialReference":{"wkid":4326}}}
{"_id":{"$oid":"5bde387e0921aa05cc552f42"},"DATE":"2018-05-02T04:00:00.000Z","DRNUMB":18268924,"TIMESTART":1300,"TIMEEND":1400,"ADDRESS":"700 E  ADAMS ST","CODE_DEFINED":"MV THEFT","Attempt":null,"Arrest":null,"LarcenyCode":"All Other","FID":276,"location":{"type":"Point","coordinates":[-76.141893135,43.042685554],"spatialReference":{"wkid":4326}}}
{"_id":{"$oid":"5bde387e0921aa05cc552f43"},"DATE":"2018-05-02T04:00:00.000Z","DRNUMB":18900340,"TIMESTART":2149,"TIMEEND":245,"ADDRESS":"600 RICHMOND AVE","CODE_DEFINED":"LARCENY","Attempt":null,"Arrest":null,"LarcenyCode":"All Other","FID":277,"location":{"type":"Point","coordinates":[-76.176530832,43.050327464],"spatialReference":{"wkid":4326}}}
{"_id":{"$oid":"5bde387e0921aa05cc552f44"},"DATE":"2018-05-03T04:00:00.000Z","DRNUMB":18268284,"TIMESTART":1241,"TIMEEND":1241,"ADDRESS":"800 ERIE BLVD E","CODE_DEFINED":"LARCENY","Attempt":null,"Arrest":null,"LarcenyCode":"All Other","FID":278,"location":{"type":"Point","coordinates":[-76.139815235,43.050673418],"spatialReference":{"wkid":4326}}}
{"_id":{"$oid":"5bde387e0921aa05cc552f45"},"DATE":"2018-05-03T04:00:00.000Z","DRNUMB":18268990,"TIMESTART":2122,"TIMEEND":2122,"ADDRESS":"1 DESTINY USA DR","CODE_DEFINED":"LARCENY","Attempt":null,"Arrest":null,"LarcenyCode":"All Other","FID":279,"location":{"type":"Point","coordinates":[-76.17424753,43.069913309],"spatialReference":{"wkid":4326}}}
{"_id":{"$oid":"5bde387e0921aa05cc552f46"},"DATE":"2018-05-03T04:00:00.000Z","DRNUMB":18269848,"TIMESTART":1600,"TIMEEND":1200,"ADDRESS":"200 N  TOWNSEND ST","CODE_DEFINED":"LARCENY","Attempt":null,"Arrest":null,"LarcenyCode":"All Other","FID":280,"location":{"type":"Point","coordinates":[-76.145493819,43.052347482],"spatialReference":{"wkid":4326}}}
{"_id":{"$oid":"5bde387e0921aa05cc552f47"},"DATE":"2018-05-03T04:00:00.000Z","DRNUMB":18900345,"TIMESTART":1420,"TIMEEND":1830,"ADDRESS":"500 WESTCOTT ST","CODE_DEFINED":"LARCENY","Attempt":null,"Arrest":null,"LarcenyCode":"All Other","FID":281,"location":{"type":"Point","coordinates":[-76.119431195,43.041796093],"spatialReference":{"wkid":4326}}}
{"_id":{"$oid":"5bde387e0921aa05cc552f48"},"DATE":"2018-05-04T04:00:00.000Z","DRNUMB":18269468,"TIMESTART":1400,"TIMEEND":900,"ADDRESS":"200 ROOSEVELT AV","CODE_DEFINED":"LARCENY","Attempt":null,"Arrest":null,"LarcenyCode":"All Other","FID":282,"location":{"type":"Point","coordinates":[-76.117627381,43.035406041],"spatialReference":{"wkid":4326}}}
{"_id":{"$oid":"5bde387e0921aa05cc552f49"},"DATE":"2018-05-04T04:00:00.000Z","DRNUMB":18269902,"TIMESTART":800,"TIMEEND":1200,"ADDRESS":"600 S  WARREN ST","CODE_DEFINED":"LARCENY","Attempt":null,"Arrest":null,"LarcenyCode":"All Other","FID":283,"location":{"type":"Point","coordinates":[-76.150899593,43.044147115],"spatialReference":{"wkid":4326}}}
{"_id":{"$oid":"5bde387e0921aa05cc552f4a"},"DATE":"2018-05-05T04:00:00.000Z","DRNUMB":18271106,"TIMESTART":2100,"TIMEEND":1000,"ADDRESS":"1 DESTINY USA DR","CODE_DEFINED":"LARCENY","Attempt":null,"Arrest":null,"LarcenyCode":"All Other","FID":284,"location":{"type":"Point","coordinates":[-76.17424753,43.069913309],"spatialReference":{"wkid":4326}}}
{"_id":{"$oid":"5bde387e0921aa05cc552f4b"},"DATE":"2018-05-05T04:00:00.000Z","DRNUMB":18271116,"TIMESTART":1035,"TIMEEND":1035,"ADDRESS":"100 PALMER AV","CODE_DEFINED":"LARCENY","Attempt":null,"Arrest":null,"LarcenyCode":"All Other","FID":285,"location":{"type":"Point","coordinates":[-76.162763932,43.035574887],"spatialReference":{"wkid":4326}}}
{"_id":{"$oid":"5bde387e0921aa05cc552f4c"},"DATE":"2018-05-05T04:00:00.000Z","DRNUMB":18272116,"TIMESTART":2316,"TIMEEND":2316,"ADDRESS":"300 KINNE ST","CODE_DEFINED":"ROBBERY","Attempt":null,"Arrest":null,"LarcenyCode":"All Other","FID":286,"location":{"type":"Point","coordinates":[-76.119750943,43.059685725],"spatialReference":{"wkid":4326}}}
{"_id":{"$oid":"5bde387e0921aa05cc552f4d"},